[{"latitude": 18.5204303, "longitude": 73.8567437, "address": "Pune, Maharashtra, India"}, {"latitude": 19.7514798, "longitude": 75.7138884, "address": "Maharashtra, India"}, {"latitude": 18.5204303, "longitude": 73.8567437, "address": "Pune, Maharashtra, India"}, {"latitude": 18.5204303, "longitude": 73.8567437, "address": "Pune, Maharashtra, India"}, {"latitude": 19.0759837, "longitude": 72.8776559, "address": "Mumbai, Maharashtra, India"}, {"latitude": 19.0759837, "longitude": 72.8776559, "address": "Mumbai, Maharashtra, India"}, {"latitude": 18.5204303, "longitude": 73.8567437, "address": "Pune, Maharashtra, India"}, {"latitude": 21.2583689, "longitude": 81.6552991, "address": "cg elite, Street Number 1, Ashok Vihar Colony, Pandri, Raipur, Chhattisgarh 492004, India"}, {"latitude": 28.4089123, "longitude": 77.3177894, "address": "Faridabad, Haryana, India"}, {"latitude": 23.022505, "longitude": 72.5713621, "address": "Ahmedabad, Gujarat, India"}, {"latitude": 20.593684, "longitude": 78.96288, "address": "India"}, {"latitude": 20.593684, "longitude": 78.96288, "address": "India"}, {"latitude": 20.593684, "longitude": 78.96288, "address": "India"}, {"latitude": 23.2599333, "longitude": 77.412615, "address": "Bhopal, Madhya Pradesh, India"}, {"latitude": 23.2599333, "longitude": 77.412615, "address": "Bhopal, Madhya Pradesh, India"}, {"latitude": 20.593684, "longitude": 78.96288, "address": "India"}, {"latitude": 20.593684, "longitude": 78.96288, "address": "India"}, {"latitude": 19.0759837, "longitude": 72.8776559, "address": "Mumbai, Maharashtra, India"}, {"latitude": 19.2140476, "longitude": 73.0929132, "address": "Tilak Nagar, Dombivli East, Dombivli, Maharashtra 421201, India"}, {"latitude": 18.5204303, "longitude": 73.8567437, "address": "Pune, Maharashtra, India"}, {"latitude": 20.593684, "longitude": 78.96288, "address": "India"}, {"latitude": 21.2583689, "longitude": 81.6552991, "address": "cg elite, Street Number 1, Ashok Vihar Colony, Pandri, Raipur, Chhattisgarh 492004, India"}, {"latitude": 18.5204303, "longitude": 73.8567437, "address": "Pune, Maharashtra, India"}, {"latitude": 19.7514798, "longitude": 75.7138884, "address": "Maharashtra, India"}, {"latitude": 18.5204303, "longitude": 73.8567437, "address": "Pune, Maharashtra, India"}, {"latitude": 19.7514798, "longitude": 75.7138884, "address": "Maharashtra, India"}, {"latitude": 19.9974533, "longitude": 73.78980229999999, "address": "Nashik, Maharashtra, India"}, {"latitude": 18.5204303, "longitude": 73.8567437, "address": "Pune, Maharashtra, India"}, {"latitude": 18.5204303, "longitude": 73.8567437, "address": "Pune, Maharashtra, India"}, {"latitude": 19.7514798, "longitude": 75.7138884, "address": "Maharashtra, India"}, {"latitude": 18.5204303, "longitude": 73.8567437, "address": "Pune, Maharashtra, India"}, {"latitude": 19.7514798, "longitude": 75.7138884, "address": "Maharashtra, India"}, {"latitude": 19.0759837, "longitude": 72.8776559, "address": "Mumbai, Maharashtra, India"}, {"latitude": 18.5204303, "longitude": 73.8567437, "address": "Pune, Maharashtra, India"}, {"latitude": 18.5204303, "longitude": 73.8567437, "address": "Pune, Maharashtra, India"}, {"latitude": 18.5204303, "longitude": 73.8567437, "address": "Pune, Maharashtra, India"}, {"latitude": 18.5204303, "longitude": 73.8567437, "address": "Pune, Maharashtra, India"}, {"latitude": 19.9974533, "longitude": 73.78980229999999, "address": "Nashik, Maharashtra, India"}, {"latitude": 19.9974533, "longitude": 73.78980229999999, "address": "Nashik, Maharashtra, India"}, {"latitude": 19.0759837, "longitude": 72.8776559, "address": "Mumbai, Maharashtra, India"}, {"latitude": 18.5204303, "longitude": 73.8567437, "address": "Pune, Maharashtra, India"}, {"latitude": 19.7514798, "longitude": 75.7138884, "address": "Maharashtra, India"}, {"latitude": 18.5204303, "longitude": 73.8567437, "address": "Pune, Maharashtra, India"}, {"latitude": 18.5204303, "longitude": 73.8567437, "address": "Pune, Maharashtra, India"}, {"latitude": 19.9974533, "longitude": 73.78980229999999, "address": "Nashik, Maharashtra, India"}, {"latitude": 18.5204303, "longitude": 73.8567437, "address": "Pune, Maharashtra, India"}, {"latitude": 18.5204303, "longitude": 73.8567437, "address": "Pune, Maharashtra, India"}, {"latitude": 19.7514798, "longitude": 75.7138884, "address": "Maharashtra, India"}, {"latitude": 19.7514798, "longitude": 75.7138884, "address": "Maharashtra, India"}, {"latitude": 18.5204303, "longitude": 73.8567437, "address": "Pune, Maharashtra, India"}, {"latitude": 18.5204303, "longitude": 73.8567437, "address": "Pune, Maharashtra, India"}, {"latitude": 18.5204303, "longitude": 73.8567437, "address": "Pune, Maharashtra, India"}, {"latitude": 18.5204303, "longitude": 73.8567437, "address": "Pune, Maharashtra, India"}, {"latitude": 18.5204303, "longitude": 73.8567437, "address": "Pune, Maharashtra, India"}, {"latitude": 18.5204303, "longitude": 73.8567437, "address": "Pune, Maharashtra, India"}, {"latitude": 18.5204303, "longitude": 73.8567437, "address": "Pune, Maharashtra, India"}, {"latitude": 19.7514798, "longitude": 75.7138884, "address": "Maharashtra, India"}, {"latitude": 19.7514798, "longitude": 75.7138884, "address": "Maharashtra, India"}, {"latitude": 18.5204303, "longitude": 73.8567437, "address": "Pune, Maharashtra, India"}, {"latitude": 19.9974533, "longitude": 73.78980229999999, "address": "Nashik, Maharashtra, India"}, {"latitude": 19.7514798, "longitude": 75.7138884, "address": "Maharashtra, India"}, {"latitude": 1.352083, "longitude": 103.819836, "address": "Singapore"}, {"latitude": 18.5204303, "longitude": 73.8567437, "address": "Pune, Maharashtra, India"}, {"latitude": 28.635308, "longitude": 77.22496, "address": "New Delhi, Delhi, India"}, {"latitude": 18.5204303, "longitude": 73.8567437, "address": "Pune, Maharashtra, India"}, {"latitude": 19.7514798, "longitude": 75.7138884, "address": "Maharashtra, India"}, {"latitude": 18.4, "longitude": 76.56, "address": "Latur, Maharashtra, India"}, {"latitude": 18.5204303, "longitude": 73.8567437, "address": "Pune, Maharashtra, India"}, {"latitude": 19.7514798, "longitude": 75.7138884, "address": "Maharashtra, India"}, {"latitude": 18.5204303, "longitude": 73.8567437, "address": "Pune, Maharashtra, India"}, {"latitude": 18.5204303, "longitude": 73.8567437, "address": "Pune, Maharashtra, India"}, {"latitude": 19.0759837, "longitude": 72.8776559, "address": "Mumbai, Maharashtra, India"}, {"latitude": 19.0759837, "longitude": 72.8776559, "address": "Mumbai, Maharashtra, India"}, {"latitude": 18.5204303, "longitude": 73.8567437, "address": "Pune, Maharashtra, India"}, {"latitude": 21.2583689, "longitude": 81.6552991, "address": "cg elite, Street Number 1, Ashok Vihar Colony, Pandri, Raipur, Chhattisgarh 492004, India"}, {"latitude": 28.4089123, "longitude": 77.3177894, "address": "Faridabad, Haryana, India"}, {"latitude": 23.022505, "longitude": 72.5713621, "address": "Ahmedabad, Gujarat, India"}, {"latitude": 20.593684, "longitude": 78.96288, "address": "India"}, {"latitude": 20.593684, "longitude": 78.96288, "address": "India"}, {"latitude": 20.593684, "longitude": 78.96288, "address": "India"}, {"latitude": 23.2599333, "longitude": 77.412615, "address": "Bhopal, Madhya Pradesh, India"}, {"latitude": 23.2599333, "longitude": 77.412615, "address": "Bhopal, Madhya Pradesh, India"}, {"latitude": 20.593684, "longitude": 78.96288, "address": "India"}, {"latitude": 20.593684, "longitude": 78.96288, "address": "India"}, {"latitude": 19.0759837, "longitude": 72.8776559, "address": "Mumbai, Maharashtra, India"}, {"latitude": 19.2140476, "longitude": 73.0929132, "address": "Tilak Nagar, Dombivli East, Dombivli, Maharashtra 421201, India"}, {"latitude": 18.5204303, "longitude": 73.8567437, "address": "Pune, Maharashtra, India"}, {"latitude": 20.593684, "longitude": 78.96288, "address": "India"}, {"latitude": 21.2583689, "longitude": 81.6552991, "address": "cg elite, Street Number 1, Ashok Vihar Colony, Pandri, Raipur, Chhattisgarh 492004, India"}, {"latitude": 18.5204303, "longitude": 73.8567437, "address": "Pune, Maharashtra, India"}, {"latitude": 19.7514798, "longitude": 75.7138884, "address": "Maharashtra, India"}, {"latitude": 18.5204303, "longitude": 73.8567437, "address": "Pune, Maharashtra, India"}, {"latitude": 19.7514798, "longitude": 75.7138884, "address": "Maharashtra, India"}, {"latitude": 19.9974533, "longitude": 73.78980229999999, "address": "Nashik, Maharashtra, India"}, {"latitude": 18.5204303, "longitude": 73.8567437, "address": "Pune, Maharashtra, India"}, {"latitude": 18.5204303, "longitude": 73.8567437, "address": "Pune, Maharashtra, India"}, {"latitude": 19.7514798, "longitude": 75.7138884, "address": "Maharashtra, India"}, {"latitude": 18.5204303, "longitude": 73.8567437, "address": "Pune, Maharashtra, India"}, {"latitude": 19.7514798, "longitude": 75.7138884, "address": "Maharashtra, India"}, {"latitude": 19.0759837, "longitude": 72.8776559, "address": "Mumbai, Maharashtra, India"}, {"latitude": 18.5204303, "longitude": 73.8567437, "address": "Pune, Maharashtra, India"}, {"latitude": 18.5204303, "longitude": 73.8567437, "address": "Pune, Maharashtra, India"}, {"latitude": 18.5204303, "longitude": 73.8567437, "address": "Pune, Maharashtra, India"}, {"latitude": 18.5204303, "longitude": 73.8567437, "address": "Pune, Maharashtra, India"}, {"latitude": 19.9974533, "longitude": 73.78980229999999, "address": "Nashik, Maharashtra, India"}, {"latitude": 19.9974533, "longitude": 73.78980229999999, "address": "Nashik, Maharashtra, India"}, {"latitude": 19.0759837, "longitude": 72.8776559, "address": "Mumbai, Maharashtra, India"}, {"latitude": 18.5204303, "longitude": 73.8567437, "address": "Pune, Maharashtra, India"}, {"latitude": 19.7514798, "longitude": 75.7138884, "address": "Maharashtra, India"}, {"latitude": 18.5204303, "longitude": 73.8567437, "address": "Pune, Maharashtra, India"}, {"latitude": 18.5204303, "longitude": 73.8567437, "address": "Pune, Maharashtra, India"}, {"latitude": 19.9974533, "longitude": 73.78980229999999, "address": "Nashik, Maharashtra, India"}, {"latitude": 18.5204303, "longitude": 73.8567437, "address": "Pune, Maharashtra, India"}, {"latitude": 18.5204303, "longitude": 73.8567437, "address": "Pune, Maharashtra, India"}, {"latitude": 19.7514798, "longitude": 75.7138884, "address": "Maharashtra, India"}, {"latitude": 19.7514798, "longitude": 75.7138884, "address": "Maharashtra, India"}, {"latitude": 18.5204303, "longitude": 73.8567437, "address": "Pune, Maharashtra, India"}, {"latitude": 18.5204303, "longitude": 73.8567437, "address": "Pune, Maharashtra, India"}, {"latitude": 18.5204303, "longitude": 73.8567437, "address": "Pune, Maharashtra, India"}, {"latitude": 18.5204303, "longitude": 73.8567437, "address": "Pune, Maharashtra, India"}, {"latitude": 18.5204303, "longitude": 73.8567437, "address": "Pune, Maharashtra, India"}, {"latitude": 18.5204303, "longitude": 73.8567437, "address": "Pune, Maharashtra, India"}, {"latitude": 18.5204303, "longitude": 73.8567437, "address": "Pune, Maharashtra, India"}, {"latitude": 19.7514798, "longitude": 75.7138884, "address": "Maharashtra, India"}, {"latitude": 19.7514798, "longitude": 75.7138884, "address": "Maharashtra, India"}, {"latitude": 18.5204303, "longitude": 73.8567437, "address": "Pune, Maharashtra, India"}, {"latitude": 19.9974533, "longitude": 73.78980229999999, "address": "Nashik, Maharashtra, India"}, {"latitude": 19.7514798, "longitude": 75.7138884, "address": "Maharashtra, India"}, {"latitude": 1.352083, "longitude": 103.819836, "address": "Singapore"}, {"latitude": 18.5204303, "longitude": 73.8567437, "address": "Pune, Maharashtra, India"}, {"latitude": 28.635308, "longitude": 77.22496, "address": "New Delhi, Delhi, India"}, {"latitude": 18.5204303, "longitude": 73.8567437, "address": "Pune, Maharashtra, India"}, {"latitude": 18.5204303, "longitude": 73.8567437, "address": "Pune, Maharashtra, India"}, {"latitude": 18.5204303, "longitude": 73.8567437, "address": "Pune, Maharashtra, India"}, {"latitude": 18.5204303, "longitude": 73.8567437, "address": "Pune, Maharashtra, India"}, {"latitude": 18.5204303, "longitude": 73.8567437, "address": "Pune, Maharashtra, India"}, {"latitude": 18.5204303, "longitude": 73.8567437, "address": "Pune, Maharashtra, India"}, {"latitude": 18.5204303, "longitude": 73.8567437, "address": "Pune, Maharashtra, India"}, {"latitude": 19.7514798, "longitude": 75.7138884, "address": "Maharashtra, India"}, {"latitude": 19.2609958, "longitude": 76.77666500000001, "address": "Parbhani, Maharashtra, India"}, {"latitude": 18.5204303, "longitude": 73.8567437, "address": "Pune, Maharashtra, India"}, {"latitude": 18.5204303, "longitude": 73.8567437, "address": "Pune, Maharashtra, India"}, {"latitude": 28.635308, "longitude": 77.22496, "address": "New Delhi, Delhi, India"}, {"latitude": 18.5704162, "longitude": 73.859549, "address": "Maharashtra 411003, India"}, {"latitude": 18.5204303, "longitude": 73.8567437, "address": "Pune, Maharashtra, India"}, {"latitude": 19.7514798, "longitude": 75.7138884, "address": "Maharashtra, India"}, {"latitude": 18.5204303, "longitude": 73.8567437, "address": "Pune, Maharashtra, India"}, {"latitude": 19.7514798, "longitude": 75.7138884, "address": "Maharashtra, India"}, {"latitude": 18.4, "longitude": 76.56, "address": "Latur, Maharashtra, India"}, {"latitude": 18.5204303, "longitude": 73.8567437, "address": "Pune, Maharashtra, India"}, {"latitude": 19.7514798, "longitude": 75.7138884, "address": "Maharashtra, India"}, {"latitude": 18.5204303, "longitude": 73.8567437, "address": "Pune, Maharashtra, India"}, {"latitude": 18.5204303, "longitude": 73.8567437, "address": "Pune, Maharashtra, India"}, {"latitude": 19.0759837, "longitude": 72.8776559, "address": "Mumbai, Maharashtra, India"}, {"latitude": 19.0759837, "longitude": 72.8776559, "address": "Mumbai, Maharashtra, India"}, {"latitude": 18.5204303, "longitude": 73.8567437, "address": "Pune, Maharashtra, India"}, {"latitude": 21.2583689, "longitude": 81.6552991, "address": "cg elite, Street Number 1, Ashok Vihar Colony, Pandri, Raipur, Chhattisgarh 492004, India"}, {"latitude": 28.4089123, "longitude": 77.3177894, "address": "Faridabad, Haryana, India"}, {"latitude": 23.022505, "longitude": 72.5713621, "address": "Ahmedabad, Gujarat, India"}, {"latitude": 20.593684, "longitude": 78.96288, "address": "India"}, {"latitude": 20.593684, "longitude": 78.96288, "address": "India"}, {"latitude": 20.593684, "longitude": 78.96288, "address": "India"}, {"latitude": 23.2599333, "longitude": 77.412615, "address": "Bhopal, Madhya Pradesh, India"}, {"latitude": 23.2599333, "longitude": 77.412615, "address": "Bhopal, Madhya Pradesh, India"}, {"latitude": 20.593684, "longitude": 78.96288, "address": "India"}, {"latitude": 20.593684, "longitude": 78.96288, "address": "India"}, {"latitude": 19.0759837, "longitude": 72.8776559, "address": "Mumbai, Maharashtra, India"}, {"latitude": 19.2140476, "longitude": 73.0929132, "address": "Tilak Nagar, Dombivli East, Dombivli, Maharashtra 421201, India"}, {"latitude": 18.5204303, "longitude": 73.8567437, "address": "Pune, Maharashtra, India"}, {"latitude": 20.593684, "longitude": 78.96288, "address": "India"}, {"latitude": 21.2583689, "longitude": 81.6552991, "address": "cg elite, Street Number 1, Ashok Vihar Colony, Pandri, Raipur, Chhattisgarh 492004, India"}, {"latitude": 18.5204303, "longitude": 73.8567437, "address": "Pune, Maharashtra, India"}, {"latitude": 19.7514798, "longitude": 75.7138884, "address": "Maharashtra, India"}, {"latitude": 18.5204303, "longitude": 73.8567437, "address": "Pune, Maharashtra, India"}, {"latitude": 19.7514798, "longitude": 75.7138884, "address": "Maharashtra, India"}, {"latitude": 19.9974533, "longitude": 73.78980229999999, "address": "Nashik, Maharashtra, India"}, {"latitude": 18.5204303, "longitude": 73.8567437, "address": "Pune, Maharashtra, India"}, {"latitude": 18.5204303, "longitude": 73.8567437, "address": "Pune, Maharashtra, India"}, {"latitude": 19.7514798, "longitude": 75.7138884, "address": "Maharashtra, India"}, {"latitude": 18.5204303, "longitude": 73.8567437, "address": "Pune, Maharashtra, India"}, {"latitude": 19.7514798, "longitude": 75.7138884, "address": "Maharashtra, India"}, {"latitude": 19.0759837, "longitude": 72.8776559, "address": "Mumbai, Maharashtra, India"}, {"latitude": 18.5204303, "longitude": 73.8567437, "address": "Pune, Maharashtra, India"}, {"latitude": 18.5204303, "longitude": 73.8567437, "address": "Pune, Maharashtra, India"}, {"latitude": 18.5204303, "longitude": 73.8567437, "address": "Pune, Maharashtra, India"}, {"latitude": 18.5204303, "longitude": 73.8567437, "address": "Pune, Maharashtra, India"}, {"latitude": 19.9974533, "longitude": 73.78980229999999, "address": "Nashik, Maharashtra, India"}, {"latitude": 19.9974533, "longitude": 73.78980229999999, "address": "Nashik, Maharashtra, India"}, {"latitude": 19.0759837, "longitude": 72.8776559, "address": "Mumbai, Maharashtra, India"}, {"latitude": 18.5204303, "longitude": 73.8567437, "address": "Pune, Maharashtra, India"}, {"latitude": 19.7514798, "longitude": 75.7138884, "address": "Maharashtra, India"}, {"latitude": 18.5204303, "longitude": 73.8567437, "address": "Pune, Maharashtra, India"}, {"latitude": 18.5204303, "longitude": 73.8567437, "address": "Pune, Maharashtra, India"}, {"latitude": 19.0759837, "longitude": 72.8776559, "address": "Mumbai, Maharashtra, India"}, {"latitude": 19.2140476, "longitude": 73.0929132, "address": "Tilak Nagar, Dombivli East, Dombivli, Maharashtra 421201, India"}, {"latitude": 18.5204303, "longitude": 73.8567437, "address": "Pune, Maharashtra, India"}, {"latitude": 20.593684, "longitude": 78.96288, "address": "India"}, {"latitude": 21.2583689, "longitude": 81.6552991, "address": "cg elite, Street Number 1, Ashok Vihar Colony, Pandri, Raipur, Chhattisgarh 492004, India"}, {"latitude": 18.5204303, "longitude": 73.8567437, "address": "Pune, Maharashtra, India"}, {"latitude": 19.7514798, "longitude": 75.7138884, "address": "Maharashtra, India"}, {"latitude": 18.5204303, "longitude": 73.8567437, "address": "Pune, Maharashtra, India"}, {"latitude": 19.7514798, "longitude": 75.7138884, "address": "Maharashtra, India"}, {"latitude": 19.9974533, "longitude": 73.78980229999999, "address": "Nashik, Maharashtra, India"}, {"latitude": 18.5204303, "longitude": 73.8567437, "address": "Pune, Maharashtra, India"}, {"latitude": 18.5204303, "longitude": 73.8567437, "address": "Pune, Maharashtra, India"}, {"latitude": 19.7514798, "longitude": 75.7138884, "address": "Maharashtra, India"}, {"latitude": 18.5204303, "longitude": 73.8567437, "address": "Pune, Maharashtra, India"}, {"latitude": 19.7514798, "longitude": 75.7138884, "address": "Maharashtra, India"}, {"latitude": 19.0759837, "longitude": 72.8776559, "address": "Mumbai, Maharashtra, India"}, {"latitude": 18.5204303, "longitude": 73.8567437, "address": "Pune, Maharashtra, India"}, {"latitude": 18.5204303, "longitude": 73.8567437, "address": "Pune, Maharashtra, India"}, {"latitude": 18.5204303, "longitude": 73.8567437, "address": "Pune, Maharashtra, India"}, {"latitude": 18.5204303, "longitude": 73.8567437, "address": "Pune, Maharashtra, India"}, {"latitude": 19.9974533, "longitude": 73.78980229999999, "address": "Nashik, Maharashtra, India"}, {"latitude": 19.9974533, "longitude": 73.78980229999999, "address": "Nashik, Maharashtra, India"}, {"latitude": 19.0759837, "longitude": 72.8776559, "address": "Mumbai, Maharashtra, India"}, {"latitude": 18.5204303, "longitude": 73.8567437, "address": "Pune, Maharashtra, India"}, {"latitude": 19.7514798, "longitude": 75.7138884, "address": "Maharashtra, India"}, {"latitude": 18.5204303, "longitude": 73.8567437, "address": "Pune, Maharashtra, India"}, {"latitude": 18.5204303, "longitude": 73.8567437, "address": "Pune, Maharashtra, India"}, {"latitude": 19.9974533, "longitude": 73.78980229999999, "address": "Nashik, Maharashtra, India"}, {"latitude": 18.5204303, "longitude": 73.8567437, "address": "Pune, Maharashtra, India"}, {"latitude": 18.5204303, "longitude": 73.8567437, "address": "Pune, Maharashtra, India"}, {"latitude": 19.7514798, "longitude": 75.7138884, "address": "Maharashtra, India"}, {"latitude": 19.7514798, "longitude": 75.7138884, "address": "Maharashtra, India"}, {"latitude": 18.5204303, "longitude": 73.8567437, "address": "Pune, Maharashtra, India"}, {"latitude": 18.5204303, "longitude": 73.8567437, "address": "Pune, Maharashtra, India"}, {"latitude": 18.5204303, "longitude": 73.8567437, "address": "Pune, Maharashtra, India"}, {"latitude": 18.5204303, "longitude": 73.8567437, "address": "Pune, Maharashtra, India"}, {"latitude": 18.5204303, "longitude": 73.8567437, "address": "Pune, Maharashtra, India"}, {"latitude": 18.5204303, "longitude": 73.8567437, "address": "Pune, Maharashtra, India"}, {"latitude": 18.5204303, "longitude": 73.8567437, "address": "Pune, Maharashtra, India"}, {"latitude": 19.7514798, "longitude": 75.7138884, "address": "Maharashtra, India"}, {"latitude": 19.7514798, "longitude": 75.7138884, "address": "Maharashtra, India"}, {"latitude": 18.5204303, "longitude": 73.8567437, "address": "Pune, Maharashtra, India"}, {"latitude": 19.9974533, "longitude": 73.78980229999999, "address": "Nashik, Maharashtra, India"}, {"latitude": 19.7514798, "longitude": 75.7138884, "address": "Maharashtra, India"}, {"latitude": 1.352083, "longitude": 103.819836, "address": "Singapore"}, {"latitude": 18.5204303, "longitude": 73.8567437, "address": "Pune, Maharashtra, India"}, {"latitude": 28.635308, "longitude": 77.22496, "address": "New Delhi, Delhi, India"}, {"latitude": 18.5204303, "longitude": 73.8567437, "address": "Pune, Maharashtra, India"}, {"latitude": 19.0759837, "longitude": 72.8776559, "address": "Mumbai, Maharashtra, India"}, {"latitude": 12.9715987, "longitude": 77.5945627, "address": "Bengaluru, Karnataka, India"}, {"latitude": 36.778261, "longitude": -119.4179324, "address": "California, USA"}, {"latitude": 12.9715987, "longitude": 77.5945627, "address": "Bengaluru, Karnataka, India"}, {"latitude": 34.2331373, "longitude": -102.4107493, "address": "Earth, TX 79031, USA"}, {"latitude": 30.5175359, "longitude": 76.80872649999999, "address": "Ambala Chandigarh Expressway, India"}, {"latitude": 22.7195687, "longitude": 75.8577258, "address": "Indore, Madhya Pradesh, India"}, {"latitude": 18.5204303, "longitude": 73.8567437, "address": "Pune, Maharashtra, India"}, {"latitude": 12.9715987, "longitude": 77.5945627, "address": "Bengaluru, Karnataka, India"}, {"latitude": 12.9141417, "longitude": 74.8559568, "address": "Mangaluru, Karnataka, India"}, {"latitude": 18.5204303, "longitude": 73.8567437, "address": "Pune, Maharashtra, India"}, {"latitude": 18.5204303, "longitude": 73.8567437, "address": "Pune, Maharashtra, India"}, {"latitude": 18.5204303, "longitude": 73.8567437, "address": "Pune, Maharashtra, India"}, {"latitude": 52.5560732, "longitude": 13.338931, "address": "Wedding, Berlin, Germany"}, {"latitude": 19.0759837, "longitude": 72.8776559, "address": "Mumbai, Maharashtra, India"}, {"latitude": 28.635308, "longitude": 77.22496, "address": "New Delhi, Delhi, India"}, {"latitude": 28.635308, "longitude": 77.22496, "address": "New Delhi, Delhi, India"}, {"latitude": 29.0587757, "longitude": 76.085601, "address": "Haryana, India"}, {"latitude": 20.593684, "longitude": 78.96288, "address": "India"}, {"latitude": 19.7514798, "longitude": 75.7138884, "address": "Maharashtra, India"}, {"latitude": 29.508879, "longitude": 76.717439, "address": "Assandh, Haryana 132046, India"}, {"latitude": 18.5204303, "longitude": 73.8567437, "address": "Pune, Maharashtra, India"}, {"latitude": 18.5204303, "longitude": 73.8567437, "address": "Pune, Maharashtra, India"}, {"latitude": 28.635308, "longitude": 77.22496, "address": "New Delhi, Delhi, India"}, {"latitude": 18.5704162, "longitude": 73.859549, "address": "Maharashtra 411003, India"}, {"latitude": 18.5204303, "longitude": 73.8567437, "address": "Pune, Maharashtra, India"}, {"latitude": 19.7514798, "longitude": 75.7138884, "address": "Maharashtra, India"}, {"latitude": 18.5204303, "longitude": 73.8567437, "address": "Pune, Maharashtra, India"}, {"latitude": 19.7514798, "longitude": 75.7138884, "address": "Maharashtra, India"}, {"latitude": 18.4, "longitude": 76.56, "address": "Latur, Maharashtra, India"}, {"latitude": 18.5204303, "longitude": 73.8567437, "address": "Pune, Maharashtra, India"}, {"latitude": 19.7514798, "longitude": 75.7138884, "address": "Maharashtra, India"}, {"latitude": 18.5204303, "longitude": 73.8567437, "address": "Pune, Maharashtra, India"}, {"latitude": 18.5204303, "longitude": 73.8567437, "address": "Pune, Maharashtra, India"}, {"latitude": 19.0759837, "longitude": 72.8776559, "address": "Mumbai, Maharashtra, India"}, {"latitude": 19.0759837, "longitude": 72.8776559, "address": "Mumbai, Maharashtra, India"}, {"latitude": 18.5204303, "longitude": 73.8567437, "address": "Pune, Maharashtra, India"}, {"latitude": 21.2583689, "longitude": 81.6552991, "address": "cg elite, Street Number 1, Ashok Vihar Colony, Pandri, Raipur, Chhattisgarh 492004, India"}, {"latitude": 28.4089123, "longitude": 77.3177894, "address": "Faridabad, Haryana, India"}, {"latitude": 23.022505, "longitude": 72.5713621, "address": "Ahmedabad, Gujarat, India"}, {"latitude": 20.593684, "longitude": 78.96288, "address": "India"}, {"latitude": 20.593684, "longitude": 78.96288, "address": "India"}, {"latitude": 20.593684, "longitude": 78.96288, "address": "India"}, {"latitude": 23.2599333, "longitude": 77.412615, "address": "Bhopal, Madhya Pradesh, India"}, {"latitude": 23.2599333, "longitude": 77.412615, "address": "Bhopal, Madhya Pradesh, India"}, {"latitude": 20.593684, "longitude": 78.96288, "address": "India"}, {"latitude": 20.593684, "longitude": 78.96288, "address": "India"}, {"latitude": 19.0759837, "longitude": 72.8776559, "address": "Mumbai, Maharashtra, India"}, {"latitude": 19.2140476, "longitude": 73.0929132, "address": "Tilak Nagar, Dombivli East, Dombivli, Maharashtra 421201, India"}, {"latitude": 18.5204303, "longitude": 73.8567437, "address": "Pune, Maharashtra, India"}, {"latitude": 20.593684, "longitude": 78.96288, "address": "India"}, {"latitude": 21.2583689, "longitude": 81.6552991, "address": "cg elite, Street Number 1, Ashok Vihar Colony, Pandri, Raipur, Chhattisgarh 492004, India"}, {"latitude": 18.5204303, "longitude": 73.8567437, "address": "Pune, Maharashtra, India"}, {"latitude": 19.7514798, "longitude": 75.7138884, "address": "Maharashtra, India"}, {"latitude": 18.5204303, "longitude": 73.8567437, "address": "Pune, Maharashtra, India"}, {"latitude": 19.7514798, "longitude": 75.7138884, "address": "Maharashtra, India"}, {"latitude": 19.9974533, "longitude": 73.78980229999999, "address": "Nashik, Maharashtra, India"}, {"latitude": 18.5204303, "longitude": 73.8567437, "address": "Pune, Maharashtra, India"}, {"latitude": 18.5204303, "longitude": 73.8567437, "address": "Pune, Maharashtra, India"}, {"latitude": 19.7514798, "longitude": 75.7138884, "address": "Maharashtra, India"}, {"latitude": 18.5204303, "longitude": 73.8567437, "address": "Pune, Maharashtra, India"}, {"latitude": 19.7514798, "longitude": 75.7138884, "address": "Maharashtra, India"}, {"latitude": 19.0759837, "longitude": 72.8776559, "address": "Mumbai, Maharashtra, India"}, {"latitude": 18.5204303, "longitude": 73.8567437, "address": "Pune, Maharashtra, India"}, {"latitude": 18.5204303, "longitude": 73.8567437, "address": "Pune, Maharashtra, India"}, {"latitude": 18.5204303, "longitude": 73.8567437, "address": "Pune, Maharashtra, India"}, {"latitude": 18.5204303, "longitude": 73.8567437, "address": "Pune, Maharashtra, India"}, {"latitude": 19.9974533, "longitude": 73.78980229999999, "address": "Nashik, Maharashtra, India"}, {"latitude": 19.9974533, "longitude": 73.78980229999999, "address": "Nashik, Maharashtra, India"}, {"latitude": 19.0759837, "longitude": 72.8776559, "address": "Mumbai, Maharashtra, India"}, {"latitude": 18.5204303, "longitude": 73.8567437, "address": "Pune, Maharashtra, India"}, {"latitude": 19.7514798, "longitude": 75.7138884, "address": "Maharashtra, India"}, {"latitude": 18.5204303, "longitude": 73.8567437, "address": "Pune, Maharashtra, India"}, {"latitude": 18.5204303, "longitude": 73.8567437, "address": "Pune, Maharashtra, India"}, {"latitude": 19.9974533, "longitude": 73.78980229999999, "address": "Nashik, Maharashtra, India"}, {"latitude": 18.5204303, "longitude": 73.8567437, "address": "Pune, Maharashtra, India"}, {"latitude": 18.5204303, "longitude": 73.8567437, "address": "Pune, Maharashtra, India"}, {"latitude": 19.7514798, "longitude": 75.7138884, "address": "Maharashtra, India"}, {"latitude": 19.7514798, "longitude": 75.7138884, "address": "Maharashtra, India"}, {"latitude": 18.5204303, "longitude": 73.8567437, "address": "Pune, Maharashtra, India"}, {"latitude": 18.5204303, "longitude": 73.8567437, "address": "Pune, Maharashtra, India"}, {"latitude": 18.5204303, "longitude": 73.8567437, "address": "Pune, Maharashtra, India"}, {"latitude": 18.5204303, "longitude": 73.8567437, "address": "Pune, Maharashtra, India"}, {"latitude": 18.5204303, "longitude": 73.8567437, "address": "Pune, Maharashtra, India"}, {"latitude": 18.5204303, "longitude": 73.8567437, "address": "Pune, Maharashtra, India"}, {"latitude": 18.5204303, "longitude": 73.8567437, "address": "Pune, Maharashtra, India"}, {"latitude": 19.7514798, "longitude": 75.7138884, "address": "Maharashtra, India"}, {"latitude": 20.593684, "longitude": 78.96288, "address": "India"}, {"latitude": 23.2599333, "longitude": 77.412615, "address": "Bhopal, Madhya Pradesh, India"}, {"latitude": 23.2599333, "longitude": 77.412615, "address": "Bhopal, Madhya Pradesh, India"}, {"latitude": 20.593684, "longitude": 78.96288, "address": "India"}, {"latitude": 20.593684, "longitude": 78.96288, "address": "India"}, {"latitude": 19.0759837, "longitude": 72.8776559, "address": "Mumbai, Maharashtra, India"}, {"latitude": 19.2140476, "longitude": 73.0929132, "address": "Tilak Nagar, Dombivli East, Dombivli, Maharashtra 421201, India"}, {"latitude": 18.5204303, "longitude": 73.8567437, "address": "Pune, Maharashtra, India"}, {"latitude": 20.593684, "longitude": 78.96288, "address": "India"}, {"latitude": 21.2583689, "longitude": 81.6552991, "address": "cg elite, Street Number 1, Ashok Vihar Colony, Pandri, Raipur, Chhattisgarh 492004, India"}, {"latitude": 18.5204303, "longitude": 73.8567437, "address": "Pune, Maharashtra, India"}, {"latitude": 19.7514798, "longitude": 75.7138884, "address": "Maharashtra, India"}, {"latitude": 18.5204303, "longitude": 73.8567437, "address": "Pune, Maharashtra, India"}, {"latitude": 19.7514798, "longitude": 75.7138884, "address": "Maharashtra, India"}, {"latitude": 19.9974533, "longitude": 73.78980229999999, "address": "Nashik, Maharashtra, India"}, {"latitude": 18.5204303, "longitude": 73.8567437, "address": "Pune, Maharashtra, India"}, {"latitude": 18.5204303, "longitude": 73.8567437, "address": "Pune, Maharashtra, India"}, {"latitude": 19.7514798, "longitude": 75.7138884, "address": "Maharashtra, India"}, {"latitude": 18.5204303, "longitude": 73.8567437, "address": "Pune, Maharashtra, India"}, {"latitude": 19.7514798, "longitude": 75.7138884, "address": "Maharashtra, India"}, {"latitude": 19.0759837, "longitude": 72.8776559, "address": "Mumbai, Maharashtra, India"}, {"latitude": 18.5204303, "longitude": 73.8567437, "address": "Pune, Maharashtra, India"}, {"latitude": 18.5204303, "longitude": 73.8567437, "address": "Pune, Maharashtra, India"}, {"latitude": 18.5204303, "longitude": 73.8567437, "address": "Pune, Maharashtra, India"}, {"latitude": 18.5204303, "longitude": 73.8567437, "address": "Pune, Maharashtra, India"}, {"latitude": 19.9974533, "longitude": 73.78980229999999, "address": "Nashik, Maharashtra, India"}, {"latitude": 19.9974533, "longitude": 73.78980229999999, "address": "Nashik, Maharashtra, India"}, {"latitude": 19.0759837, "longitude": 72.8776559, "address": "Mumbai, Maharashtra, India"}, {"latitude": 18.5204303, "longitude": 73.8567437, "address": "Pune, Maharashtra, India"}, {"latitude": 19.7514798, "longitude": 75.7138884, "address": "Maharashtra, India"}, {"latitude": 18.5204303, "longitude": 73.8567437, "address": "Pune, Maharashtra, India"}, {"latitude": 18.5204303, "longitude": 73.8567437, "address": "Pune, Maharashtra, India"}, {"latitude": 19.9974533, "longitude": 73.78980229999999, "address": "Nashik, Maharashtra, India"}, {"latitude": 18.5204303, "longitude": 73.8567437, "address": "Pune, Maharashtra, India"}, {"latitude": 18.5204303, "longitude": 73.8567437, "address": "Pune, Maharashtra, India"}, {"latitude": 19.7514798, "longitude": 75.7138884, "address": "Maharashtra, India"}, {"latitude": 19.7514798, "longitude": 75.7138884, "address": "Maharashtra, India"}, {"latitude": 18.5204303, "longitude": 73.8567437, "address": "Pune, Maharashtra, India"}, {"latitude": 18.5204303, "longitude": 73.8567437, "address": "Pune, Maharashtra, India"}, {"latitude": 18.5204303, "longitude": 73.8567437, "address": "Pune, Maharashtra, India"}, {"latitude": 18.5204303, "longitude": 73.8567437, "address": "Pune, Maharashtra, India"}, {"latitude": 18.5204303, "longitude": 73.8567437, "address": "Pune, Maharashtra, India"}, {"latitude": 18.5204303, "longitude": 73.8567437, "address": "Pune, Maharashtra, India"}, {"latitude": 18.5204303, "longitude": 73.8567437, "address": "Pune, Maharashtra, India"}, {"latitude": 19.7514798, "longitude": 75.7138884, "address": "Maharashtra, India"}, {"latitude": 19.7514798, "longitude": 75.7138884, "address": "Maharashtra, India"}, {"latitude": 18.5204303, "longitude": 73.8567437, "address": "Pune, Maharashtra, India"}, {"latitude": 19.9974533, "longitude": 73.78980229999999, "address": "Nashik, Maharashtra, India"}, {"latitude": 19.7514798, "longitude": 75.7138884, "address": "Maharashtra, India"}, {"latitude": 1.352083, "longitude": 103.819836, "address": "Singapore"}, {"latitude": 18.5204303, "longitude": 73.8567437, "address": "Pune, Maharashtra, India"}, {"latitude": 28.635308, "longitude": 77.22496, "address": "New Delhi, Delhi, India"}, {"latitude": 18.5204303, "longitude": 73.8567437, "address": "Pune, Maharashtra, India"}, {"latitude": 19.0759837, "longitude": 72.8776559, "address": "Mumbai, Maharashtra, India"}, {"latitude": 12.9715987, "longitude": 77.5945627, "address": "Bengaluru, Karnataka, India"}, {"latitude": 36.778261, "longitude": -119.4179324, "address": "California, USA"}, {"latitude": 12.9715987, "longitude": 77.5945627, "address": "Bengaluru, Karnataka, India"}, {"latitude": 34.2331373, "longitude": -102.4107493, "address": "Earth, TX 79031, USA"}, {"latitude": 30.5175359, "longitude": 76.80872649999999, "address": "Ambala Chandigarh Expressway, India"}, {"latitude": 22.7195687, "longitude": 75.8577258, "address": "Indore, Madhya Pradesh, India"}, {"latitude": 18.5204303, "longitude": 73.8567437, "address": "Pune, Maharashtra, India"}, {"latitude": 12.9715987, "longitude": 77.5945627, "address": "Bengaluru, Karnataka, India"}, {"latitude": 12.9141417, "longitude": 74.8559568, "address": "Mangaluru, Karnataka, India"}, {"latitude": 23.2599333, "longitude": 77.412615, "address": "Bhopal, Madhya Pradesh, India"}, {"latitude": 23.2599333, "longitude": 77.412615, "address": "Bhopal, Madhya Pradesh, India"}, {"latitude": 20.593684, "longitude": 78.96288, "address": "India"}, {"latitude": 20.593684, "longitude": 78.96288, "address": "India"}, {"latitude": 19.0759837, "longitude": 72.8776559, "address": "Mumbai, Maharashtra, India"}, {"latitude": 19.2140476, "longitude": 73.0929132, "address": "Tilak Nagar, Dombivli East, Dombivli, Maharashtra 421201, India"}, {"latitude": 18.5204303, "longitude": 73.8567437, "address": "Pune, Maharashtra, India"}, {"latitude": 20.593684, "longitude": 78.96288, "address": "India"}, {"latitude": 21.2583689, "longitude": 81.6552991, "address": "cg elite, Street Number 1, Ashok Vihar Colony, Pandri, Raipur, Chhattisgarh 492004, India"}, {"latitude": 18.5204303, "longitude": 73.8567437, "address": "Pune, Maharashtra, India"}, {"latitude": 19.7514798, "longitude": 75.7138884, "address": "Maharashtra, India"}, {"latitude": 18.5204303, "longitude": 73.8567437, "address": "Pune, Maharashtra, India"}, {"latitude": 19.7514798, "longitude": 75.7138884, "address": "Maharashtra, India"}, {"latitude": 19.9974533, "longitude": 73.78980229999999, "address": "Nashik, Maharashtra, India"}, {"latitude": 18.5204303, "longitude": 73.8567437, "address": "Pune, Maharashtra, India"}, {"latitude": 18.5204303, "longitude": 73.8567437, "address": "Pune, Maharashtra, India"}, {"latitude": 19.7514798, "longitude": 75.7138884, "address": "Maharashtra, India"}, {"latitude": 18.5204303, "longitude": 73.8567437, "address": "Pune, Maharashtra, India"}, {"latitude": 19.7514798, "longitude": 75.7138884, "address": "Maharashtra, India"}, {"latitude": 19.0759837, "longitude": 72.8776559, "address": "Mumbai, Maharashtra, India"}, {"latitude": 18.5204303, "longitude": 73.8567437, "address": "Pune, Maharashtra, India"}, {"latitude": 18.5204303, "longitude": 73.8567437, "address": "Pune, Maharashtra, India"}, {"latitude": 18.5204303, "longitude": 73.8567437, "address": "Pune, Maharashtra, India"}, {"latitude": 18.5204303, "longitude": 73.8567437, "address": "Pune, Maharashtra, India"}, {"latitude": 19.9974533, "longitude": 73.78980229999999, "address": "Nashik, Maharashtra, India"}, {"latitude": 19.9974533, "longitude": 73.78980229999999, "address": "Nashik, Maharashtra, India"}, {"latitude": 19.0759837, "longitude": 72.8776559, "address": "Mumbai, Maharashtra, India"}, {"latitude": 18.5204303, "longitude": 73.8567437, "address": "Pune, Maharashtra, India"}, {"latitude": 19.7514798, "longitude": 75.7138884, "address": "Maharashtra, India"}, {"latitude": 18.5204303, "longitude": 73.8567437, "address": "Pune, Maharashtra, India"}, {"latitude": 18.5204303, "longitude": 73.8567437, "address": "Pune, Maharashtra, India"}, {"latitude": 19.9974533, "longitude": 73.78980229999999, "address": "Nashik, Maharashtra, India"}, {"latitude": 18.5204303, "longitude": 73.8567437, "address": "Pune, Maharashtra, India"}, {"latitude": 18.5204303, "longitude": 73.8567437, "address": "Pune, Maharashtra, India"}, {"latitude": 19.7514798, "longitude": 75.7138884, "address": "Maharashtra, India"}, {"latitude": 19.7514798, "longitude": 75.7138884, "address": "Maharashtra, India"}, {"latitude": 18.5204303, "longitude": 73.8567437, "address": "Pune, Maharashtra, India"}, {"latitude": 18.5204303, "longitude": 73.8567437, "address": "Pune, Maharashtra, India"}, {"latitude": 18.5204303, "longitude": 73.8567437, "address": "Pune, Maharashtra, India"}, {"latitude": 18.5204303, "longitude": 73.8567437, "address": "Pune, Maharashtra, India"}, {"latitude": 18.5204303, "longitude": 73.8567437, "address": "Pune, Maharashtra, India"}, {"latitude": 18.5204303, "longitude": 73.8567437, "address": "Pune, Maharashtra, India"}, {"latitude": 18.5204303, "longitude": 73.8567437, "address": "Pune, Maharashtra, India"}, {"latitude": 19.7514798, "longitude": 75.7138884, "address": "Maharashtra, India"}, {"latitude": 19.7514798, "longitude": 75.7138884, "address": "Maharashtra, India"}, {"latitude": 18.5204303, "longitude": 73.8567437, "address": "Pune, Maharashtra, India"}, {"latitude": 19.9974533, "longitude": 73.78980229999999, "address": "Nashik, Maharashtra, India"}, {"latitude": 19.7514798, "longitude": 75.7138884, "address": "Maharashtra, India"}, {"latitude": 1.352083, "longitude": 103.819836, "address": "Singapore"}, {"latitude": 18.5204303, "longitude": 73.8567437, "address": "Pune, Maharashtra, India"}, {"latitude": 28.635308, "longitude": 77.22496, "address": "New Delhi, Delhi, India"}, {"latitude": 18.5204303, "longitude": 73.8567437, "address": "Pune, Maharashtra, India"}, {"latitude": 19.0759837, "longitude": 72.8776559, "address": "Mumbai, Maharashtra, India"}, {"latitude": 12.9715987, "longitude": 77.5945627, "address": "Bengaluru, Karnataka, India"}, {"latitude": 36.778261, "longitude": -119.4179324, "address": "California, USA"}, {"latitude": 12.9715987, "longitude": 77.5945627, "address": "Bengaluru, Karnataka, India"}, {"latitude": 34.2331373, "longitude": -102.4107493, "address": "Earth, TX 79031, USA"}, {"latitude": 30.5175359, "longitude": 76.80872649999999, "address": "Ambala Chandigarh Expressway, India"}, {"latitude": 22.7195687, "longitude": 75.8577258, "address": "Indore, Madhya Pradesh, India"}, {"latitude": 18.5204303, "longitude": 73.8567437, "address": "Pune, Maharashtra, India"}, {"latitude": 12.9715987, "longitude": 77.5945627, "address": "Bengaluru, Karnataka, India"}, {"latitude": 12.9141417, "longitude": 74.8559568, "address": "Mangaluru, Karnataka, India"}, {"latitude": 18.5204303, "longitude": 73.8567437, "address": "Pune, Maharashtra, India"}, {"latitude": 18.5204303, "longitude": 73.8567437, "address": "Pune, Maharashtra, India"}, {"latitude": 18.5204303, "longitude": 73.8567437, "address": "Pune, Maharashtra, India"}, {"latitude": 52.5560732, "longitude": 13.338931, "address": "Wedding, Berlin, Germany"}, {"latitude": 19.0759837, "longitude": 72.8776559, "address": "Mumbai, Maharashtra, India"}, {"latitude": 28.635308, "longitude": 77.22496, "address": "New Delhi, Delhi, India"}, {"latitude": 28.635308, "longitude": 77.22496, "address": "New Delhi, Delhi, India"}, {"latitude": 29.0587757, "longitude": 76.085601, "address": "Haryana, India"}, {"latitude": 23.2599333, "longitude": 77.412615, "address": "Bhopal, Madhya Pradesh, India"}, {"latitude": 23.2599333, "longitude": 77.412615, "address": "Bhopal, Madhya Pradesh, India"}, {"latitude": 20.593684, "longitude": 78.96288, "address": "India"}, {"latitude": 20.593684, "longitude": 78.96288, "address": "India"}, {"latitude": 19.0759837, "longitude": 72.8776559, "address": "Mumbai, Maharashtra, India"}, {"latitude": 19.2140476, "longitude": 73.0929132, "address": "Tilak Nagar, Dombivli East, Dombivli, Maharashtra 421201, India"}, {"latitude": 18.5204303, "longitude": 73.8567437, "address": "Pune, Maharashtra, India"}, {"latitude": 20.593684, "longitude": 78.96288, "address": "India"}, {"latitude": 21.2583689, "longitude": 81.6552991, "address": "cg elite, Street Number 1, Ashok Vihar Colony, Pandri, Raipur, Chhattisgarh 492004, India"}, {"latitude": 18.5204303, "longitude": 73.8567437, "address": "Pune, Maharashtra, India"}, {"latitude": 19.7514798, "longitude": 75.7138884, "address": "Maharashtra, India"}, {"latitude": 18.5204303, "longitude": 73.8567437, "address": "Pune, Maharashtra, India"}, {"latitude": 19.7514798, "longitude": 75.7138884, "address": "Maharashtra, India"}, {"latitude": 19.9974533, "longitude": 73.78980229999999, "address": "Nashik, Maharashtra, India"}, {"latitude": 18.5204303, "longitude": 73.8567437, "address": "Pune, Maharashtra, India"}, {"latitude": 18.5204303, "longitude": 73.8567437, "address": "Pune, Maharashtra, India"}, {"latitude": 19.7514798, "longitude": 75.7138884, "address": "Maharashtra, India"}, {"latitude": 18.5204303, "longitude": 73.8567437, "address": "Pune, Maharashtra, India"}, {"latitude": 19.7514798, "longitude": 75.7138884, "address": "Maharashtra, India"}, {"latitude": 19.0759837, "longitude": 72.8776559, "address": "Mumbai, Maharashtra, India"}, {"latitude": 18.5204303, "longitude": 73.8567437, "address": "Pune, Maharashtra, India"}, {"latitude": 18.5204303, "longitude": 73.8567437, "address": "Pune, Maharashtra, India"}, {"latitude": 18.5204303, "longitude": 73.8567437, "address": "Pune, Maharashtra, India"}, {"latitude": 18.5204303, "longitude": 73.8567437, "address": "Pune, Maharashtra, India"}, {"latitude": 19.9974533, "longitude": 73.78980229999999, "address": "Nashik, Maharashtra, India"}, {"latitude": 19.9974533, "longitude": 73.78980229999999, "address": "Nashik, Maharashtra, India"}, {"latitude": 19.0759837, "longitude": 72.8776559, "address": "Mumbai, Maharashtra, India"}, {"latitude": 18.5204303, "longitude": 73.8567437, "address": "Pune, Maharashtra, India"}, {"latitude": 19.7514798, "longitude": 75.7138884, "address": "Maharashtra, India"}, {"latitude": 18.5204303, "longitude": 73.8567437, "address": "Pune, Maharashtra, India"}, {"latitude": 18.5204303, "longitude": 73.8567437, "address": "Pune, Maharashtra, India"}, {"latitude": 19.9974533, "longitude": 73.78980229999999, "address": "Nashik, Maharashtra, India"}, {"latitude": 18.5204303, "longitude": 73.8567437, "address": "Pune, Maharashtra, India"}, {"latitude": 18.5204303, "longitude": 73.8567437, "address": "Pune, Maharashtra, India"}, {"latitude": 19.7514798, "longitude": 75.7138884, "address": "Maharashtra, India"}, {"latitude": 19.7514798, "longitude": 75.7138884, "address": "Maharashtra, India"}, {"latitude": 18.5204303, "longitude": 73.8567437, "address": "Pune, Maharashtra, India"}, {"latitude": 18.5204303, "longitude": 73.8567437, "address": "Pune, Maharashtra, India"}, {"latitude": 18.5204303, "longitude": 73.8567437, "address": "Pune, Maharashtra, India"}, {"latitude": 18.5204303, "longitude": 73.8567437, "address": "Pune, Maharashtra, India"}, {"latitude": 18.5204303, "longitude": 73.8567437, "address": "Pune, Maharashtra, India"}, {"latitude": 18.5204303, "longitude": 73.8567437, "address": "Pune, Maharashtra, India"}, {"latitude": 18.5204303, "longitude": 73.8567437, "address": "Pune, Maharashtra, India"}, {"latitude": 19.7514798, "longitude": 75.7138884, "address": "Maharashtra, India"}, {"latitude": 19.7514798, "longitude": 75.7138884, "address": "Maharashtra, India"}, {"latitude": 18.5204303, "longitude": 73.8567437, "address": "Pune, Maharashtra, India"}, {"latitude": 19.9974533, "longitude": 73.78980229999999, "address": "Nashik, Maharashtra, India"}, {"latitude": 19.7514798, "longitude": 75.7138884, "address": "Maharashtra, India"}, {"latitude": 1.352083, "longitude": 103.819836, "address": "Singapore"}, {"latitude": 18.5204303, "longitude": 73.8567437, "address": "Pune, Maharashtra, India"}, {"latitude": 28.635308, "longitude": 77.22496, "address": "New Delhi, Delhi, India"}, {"latitude": 18.5204303, "longitude": 73.8567437, "address": "Pune, Maharashtra, India"}, {"latitude": 19.0759837, "longitude": 72.8776559, "address": "Mumbai, Maharashtra, India"}, {"latitude": 12.9715987, "longitude": 77.5945627, "address": "Bengaluru, Karnataka, India"}, {"latitude": 36.778261, "longitude": -119.4179324, "address": "California, USA"}, {"latitude": 12.9715987, "longitude": 77.5945627, "address": "Bengaluru, Karnataka, India"}, {"latitude": 34.2331373, "longitude": -102.4107493, "address": "Earth, TX 79031, USA"}, {"latitude": 30.5175359, "longitude": 76.80872649999999, "address": "Ambala Chandigarh Expressway, India"}, {"latitude": 22.7195687, "longitude": 75.8577258, "address": "Indore, Madhya Pradesh, India"}, {"latitude": 18.5204303, "longitude": 73.8567437, "address": "Pune, Maharashtra, India"}, {"latitude": 12.9715987, "longitude": 77.5945627, "address": "Bengaluru, Karnataka, India"}, {"latitude": 12.9141417, "longitude": 74.8559568, "address": "Mangaluru, Karnataka, India"}, {"latitude": 18.5204303, "longitude": 73.8567437, "address": "Pune, Maharashtra, India"}, {"latitude": 18.5204303, "longitude": 73.8567437, "address": "Pune, Maharashtra, India"}, {"latitude": 18.5204303, "longitude": 73.8567437, "address": "Pune, Maharashtra, India"}, {"latitude": 52.5560732, "longitude": 13.338931, "address": "Wedding, Berlin, Germany"}, {"latitude": 19.0759837, "longitude": 72.8776559, "address": "Mumbai, Maharashtra, India"}, {"latitude": 28.635308, "longitude": 77.22496, "address": "New Delhi, Delhi, India"}, {"latitude": 28.635308, "longitude": 77.22496, "address": "New Delhi, Delhi, India"}, {"latitude": 18.5204303, "longitude": 73.8567437, "address": "Pune, Maharashtra, India"}, {"latitude": 18.5204303, "longitude": 73.8567437, "address": "Pune, Maharashtra, India"}, {"latitude": 18.5204303, "longitude": 73.8567437, "address": "Pune, Maharashtra, India"}, {"latitude": 18.5204303, "longitude": 73.8567437, "address": "Pune, Maharashtra, India"}, {"latitude": 18.5204303, "longitude": 73.8567437, "address": "Pune, Maharashtra, India"}, {"latitude": 18.5204303, "longitude": 73.8567437, "address": "Pune, Maharashtra, India"}, {"latitude": 18.5204303, "longitude": 73.8567437, "address": "Pune, Maharashtra, India"}, {"latitude": 18.5204303, "longitude": 73.8567437, "address": "Pune, Maharashtra, India"}, {"latitude": 18.5204303, "longitude": 73.8567437, "address": "Pune, Maharashtra, India"}, {"latitude": 18.5204303, "longitude": 73.8567437, "address": "Pune, Maharashtra, India"}, {"latitude": 19.7514798, "longitude": 75.7138884, "address": "Maharashtra, India"}, {"latitude": 19.2609958, "longitude": 76.77666500000001, "address": "Parbhani, Maharashtra, India"}, {"latitude": 18.5204303, "longitude": 73.8567437, "address": "Pune, Maharashtra, India"}, {"latitude": 18.5204303, "longitude": 73.8567437, "address": "Pune, Maharashtra, India"}, {"latitude": 28.635308, "longitude": 77.22496, "address": "New Delhi, Delhi, India"}, {"latitude": 18.5704162, "longitude": 73.859549, "address": "Maharashtra 411003, India"}, {"latitude": 18.5204303, "longitude": 73.8567437, "address": "Pune, Maharashtra, India"}, {"latitude": 19.7514798, "longitude": 75.7138884, "address": "Maharashtra, India"}, {"latitude": 18.5204303, "longitude": 73.8567437, "address": "Pune, Maharashtra, India"}, {"latitude": 19.7514798, "longitude": 75.7138884, "address": "Maharashtra, India"}, {"latitude": 18.4, "longitude": 76.56, "address": "Latur, Maharashtra, India"}, {"latitude": 18.5204303, "longitude": 73.8567437, "address": "Pune, Maharashtra, India"}, {"latitude": 19.7514798, "longitude": 75.7138884, "address": "Maharashtra, India"}, {"latitude": 18.5204303, "longitude": 73.8567437, "address": "Pune, Maharashtra, India"}, {"latitude": 18.5204303, "longitude": 73.8567437, "address": "Pune, Maharashtra, India"}, {"latitude": 19.0759837, "longitude": 72.8776559, "address": "Mumbai, Maharashtra, India"}, {"latitude": 19.0759837, "longitude": 72.8776559, "address": "Mumbai, Maharashtra, India"}, {"latitude": 18.5204303, "longitude": 73.8567437, "address": "Pune, Maharashtra, India"}, {"latitude": 21.2583689, "longitude": 81.6552991, "address": "cg elite, Street Number 1, Ashok Vihar Colony, Pandri, Raipur, Chhattisgarh 492004, India"}, {"latitude": 28.4089123, "longitude": 77.3177894, "address": "Faridabad, Haryana, India"}, {"latitude": 23.022505, "longitude": 72.5713621, "address": "Ahmedabad, Gujarat, India"}, {"latitude": 20.593684, "longitude": 78.96288, "address": "India"}, {"latitude": 20.593684, "longitude": 78.96288, "address": "India"}, {"latitude": 20.593684, "longitude": 78.96288, "address": "India"}, {"latitude": 23.2599333, "longitude": 77.412615, "address": "Bhopal, Madhya Pradesh, India"}, {"latitude": 23.2599333, "longitude": 77.412615, "address": "Bhopal, Madhya Pradesh, India"}, {"latitude": 20.593684, "longitude": 78.96288, "address": "India"}, {"latitude": 20.593684, "longitude": 78.96288, "address": "India"}, {"latitude": 19.0759837, "longitude": 72.8776559, "address": "Mumbai, Maharashtra, India"}, {"latitude": 19.2140476, "longitude": 73.0929132, "address": "Tilak Nagar, Dombivli East, Dombivli, Maharashtra 421201, India"}, {"latitude": 18.5204303, "longitude": 73.8567437, "address": "Pune, Maharashtra, India"}, {"latitude": 20.593684, "longitude": 78.96288, "address": "India"}, {"latitude": 21.2583689, "longitude": 81.6552991, "address": "cg elite, Street Number 1, Ashok Vihar Colony, Pandri, Raipur, Chhattisgarh 492004, India"}, {"latitude": 18.5204303, "longitude": 73.8567437, "address": "Pune, Maharashtra, India"}, {"latitude": 19.7514798, "longitude": 75.7138884, "address": "Maharashtra, India"}, {"latitude": 18.5204303, "longitude": 73.8567437, "address": "Pune, Maharashtra, India"}, {"latitude": 19.7514798, "longitude": 75.7138884, "address": "Maharashtra, India"}, {"latitude": 19.9974533, "longitude": 73.78980229999999, "address": "Nashik, Maharashtra, India"}, {"latitude": 18.5204303, "longitude": 73.8567437, "address": "Pune, Maharashtra, India"}, {"latitude": 18.5204303, "longitude": 73.8567437, "address": "Pune, Maharashtra, India"}, {"latitude": 19.7514798, "longitude": 75.7138884, "address": "Maharashtra, India"}, {"latitude": 18.5204303, "longitude": 73.8567437, "address": "Pune, Maharashtra, India"}, {"latitude": 19.7514798, "longitude": 75.7138884, "address": "Maharashtra, India"}, {"latitude": 19.0759837, "longitude": 72.8776559, "address": "Mumbai, Maharashtra, India"}, {"latitude": 18.5204303, "longitude": 73.8567437, "address": "Pune, Maharashtra, India"}, {"latitude": 18.5204303, "longitude": 73.8567437, "address": "Pune, Maharashtra, India"}, {"latitude": 18.5204303, "longitude": 73.8567437, "address": "Pune, Maharashtra, India"}, {"latitude": 18.5204303, "longitude": 73.8567437, "address": "Pune, Maharashtra, India"}, {"latitude": 19.9974533, "longitude": 73.78980229999999, "address": "Nashik, Maharashtra, India"}, {"latitude": 19.9974533, "longitude": 73.78980229999999, "address": "Nashik, Maharashtra, India"}, {"latitude": 28.4089123, "longitude": 77.3177894, "address": "Faridabad, Haryana, India"}, {"latitude": 23.022505, "longitude": 72.5713621, "address": "Ahmedabad, Gujarat, India"}, {"latitude": 20.593684, "longitude": 78.96288, "address": "India"}, {"latitude": 20.593684, "longitude": 78.96288, "address": "India"}, {"latitude": 20.593684, "longitude": 78.96288, "address": "India"}, {"latitude": 23.2599333, "longitude": 77.412615, "address": "Bhopal, Madhya Pradesh, India"}, {"latitude": 23.2599333, "longitude": 77.412615, "address": "Bhopal, Madhya Pradesh, India"}, {"latitude": 20.593684, "longitude": 78.96288, "address": "India"}, {"latitude": 20.593684, "longitude": 78.96288, "address": "India"}, {"latitude": 19.0759837, "longitude": 72.8776559, "address": "Mumbai, Maharashtra, India"}, {"latitude": 19.2140476, "longitude": 73.0929132, "address": "Tilak Nagar, Dombivli East, Dombivli, Maharashtra 421201, India"}, {"latitude": 18.5204303, "longitude": 73.8567437, "address": "Pune, Maharashtra, India"}, {"latitude": 20.593684, "longitude": 78.96288, "address": "India"}, {"latitude": 21.2583689, "longitude": 81.6552991, "address": "cg elite, Street Number 1, Ashok Vihar Colony, Pandri, Raipur, Chhattisgarh 492004, India"}, {"latitude": 18.5204303, "longitude": 73.8567437, "address": "Pune, Maharashtra, India"}, {"latitude": 19.7514798, "longitude": 75.7138884, "address": "Maharashtra, India"}, {"latitude": 18.5204303, "longitude": 73.8567437, "address": "Pune, Maharashtra, India"}, {"latitude": 19.7514798, "longitude": 75.7138884, "address": "Maharashtra, India"}, {"latitude": 19.9974533, "longitude": 73.78980229999999, "address": "Nashik, Maharashtra, India"}, {"latitude": 18.5204303, "longitude": 73.8567437, "address": "Pune, Maharashtra, India"}, {"latitude": 18.5204303, "longitude": 73.8567437, "address": "Pune, Maharashtra, India"}, {"latitude": 19.7514798, "longitude": 75.7138884, "address": "Maharashtra, India"}, {"latitude": 18.5204303, "longitude": 73.8567437, "address": "Pune, Maharashtra, India"}, {"latitude": 19.7514798, "longitude": 75.7138884, "address": "Maharashtra, India"}, {"latitude": 19.0759837, "longitude": 72.8776559, "address": "Mumbai, Maharashtra, India"}, {"latitude": 18.5204303, "longitude": 73.8567437, "address": "Pune, Maharashtra, India"}, {"latitude": 18.5204303, "longitude": 73.8567437, "address": "Pune, Maharashtra, India"}, {"latitude": 18.5204303, "longitude": 73.8567437, "address": "Pune, Maharashtra, India"}, {"latitude": 18.5204303, "longitude": 73.8567437, "address": "Pune, Maharashtra, India"}, {"latitude": 19.9974533, "longitude": 73.78980229999999, "address": "Nashik, Maharashtra, India"}, {"latitude": 19.9974533, "longitude": 73.78980229999999, "address": "Nashik, Maharashtra, India"}, {"latitude": 19.0759837, "longitude": 72.8776559, "address": "Mumbai, Maharashtra, India"}, {"latitude": 18.5204303, "longitude": 73.8567437, "address": "Pune, Maharashtra, India"}, {"latitude": 19.7514798, "longitude": 75.7138884, "address": "Maharashtra, India"}, {"latitude": 18.5204303, "longitude": 73.8567437, "address": "Pune, Maharashtra, India"}, {"latitude": 18.5204303, "longitude": 73.8567437, "address": "Pune, Maharashtra, India"}, {"latitude": 19.9974533, "longitude": 73.78980229999999, "address": "Nashik, Maharashtra, India"}, {"latitude": 18.5204303, "longitude": 73.8567437, "address": "Pune, Maharashtra, India"}, {"latitude": 18.5204303, "longitude": 73.8567437, "address": "Pune, Maharashtra, India"}, {"latitude": 19.7514798, "longitude": 75.7138884, "address": "Maharashtra, India"}, {"latitude": 19.7514798, "longitude": 75.7138884, "address": "Maharashtra, India"}, {"latitude": 18.5204303, "longitude": 73.8567437, "address": "Pune, Maharashtra, India"}, {"latitude": 18.5204303, "longitude": 73.8567437, "address": "Pune, Maharashtra, India"}, {"latitude": 18.5204303, "longitude": 73.8567437, "address": "Pune, Maharashtra, India"}, {"latitude": 18.5204303, "longitude": 73.8567437, "address": "Pune, Maharashtra, India"}, {"latitude": 18.5204303, "longitude": 73.8567437, "address": "Pune, Maharashtra, India"}, {"latitude": 18.5204303, "longitude": 73.8567437, "address": "Pune, Maharashtra, India"}, {"latitude": 18.5204303, "longitude": 73.8567437, "address": "Pune, Maharashtra, India"}, {"latitude": 19.7514798, "longitude": 75.7138884, "address": "Maharashtra, India"}, {"latitude": 19.7514798, "longitude": 75.7138884, "address": "Maharashtra, India"}, {"latitude": 18.5204303, "longitude": 73.8567437, "address": "Pune, Maharashtra, India"}, {"latitude": 19.9974533, "longitude": 73.78980229999999, "address": "Nashik, Maharashtra, India"}, {"latitude": 19.7514798, "longitude": 75.7138884, "address": "Maharashtra, India"}, {"latitude": 1.352083, "longitude": 103.819836, "address": "Singapore"}, {"latitude": 18.5204303, "longitude": 73.8567437, "address": "Pune, Maharashtra, India"}, {"latitude": 28.635308, "longitude": 77.22496, "address": "New Delhi, Delhi, India"}, {"latitude": 18.5204303, "longitude": 73.8567437, "address": "Pune, Maharashtra, India"}, {"latitude": 19.0759837, "longitude": 72.8776559, "address": "Mumbai, Maharashtra, India"}, {"latitude": 12.9715987, "longitude": 77.5945627, "address": "Bengaluru, Karnataka, India"}, {"latitude": 36.778261, "longitude": -119.4179324, "address": "California, USA"}, {"latitude": 12.9715987, "longitude": 77.5945627, "address": "Bengaluru, Karnataka, India"}, {"latitude": 34.2331373, "longitude": -102.4107493, "address": "Earth, TX 79031, USA"}, {"latitude": 30.5175359, "longitude": 76.80872649999999, "address": "Ambala Chandigarh Expressway, India"}, {"latitude": 22.7195687, "longitude": 75.8577258, "address": "Indore, Madhya Pradesh, India"}, {"latitude": 18.5204303, "longitude": 73.8567437, "address": "Pune, Maharashtra, India"}, {"latitude": 18.5204303, "longitude": 73.8567437, "address": "Pune, Maharashtra, India"}, {"latitude": 28.635308, "longitude": 77.22496, "address": "New Delhi, Delhi, India"}, {"latitude": 18.5704162, "longitude": 73.859549, "address": "Maharashtra 411003, India"}, {"latitude": 18.5204303, "longitude": 73.8567437, "address": "Pune, Maharashtra, India"}, {"latitude": 19.7514798, "longitude": 75.7138884, "address": "Maharashtra, India"}, {"latitude": 18.5204303, "longitude": 73.8567437, "address": "Pune, Maharashtra, India"}, {"latitude": 19.7514798, "longitude": 75.7138884, "address": "Maharashtra, India"}, {"latitude": 18.4, "longitude": 76.56, "address": "Latur, Maharashtra, India"}, {"latitude": 18.5204303, "longitude": 73.8567437, "address": "Pune, Maharashtra, India"}, {"latitude": 19.7514798, "longitude": 75.7138884, "address": "Maharashtra, India"}, {"latitude": 18.5204303, "longitude": 73.8567437, "address": "Pune, Maharashtra, India"}, {"latitude": 18.5204303, "longitude": 73.8567437, "address": "Pune, Maharashtra, India"}, {"latitude": 19.0759837, "longitude": 72.8776559, "address": "Mumbai, Maharashtra, India"}, {"latitude": 19.0759837, "longitude": 72.8776559, "address": "Mumbai, Maharashtra, India"}, {"latitude": 18.5204303, "longitude": 73.8567437, "address": "Pune, Maharashtra, India"}, {"latitude": 21.2583689, "longitude": 81.6552991, "address": "cg elite, Street Number 1, Ashok Vihar Colony, Pandri, Raipur, Chhattisgarh 492004, India"}, {"latitude": 28.4089123, "longitude": 77.3177894, "address": "Faridabad, Haryana, India"}, {"latitude": 23.022505, "longitude": 72.5713621, "address": "Ahmedabad, Gujarat, India"}, {"latitude": 20.593684, "longitude": 78.96288, "address": "India"}, {"latitude": 20.593684, "longitude": 78.96288, "address": "India"}, {"latitude": 20.593684, "longitude": 78.96288, "address": "India"}, {"latitude": 23.2599333, "longitude": 77.412615, "address": "Bhopal, Madhya Pradesh, India"}, {"latitude": 23.2599333, "longitude": 77.412615, "address": "Bhopal, Madhya Pradesh, India"}, {"latitude": 20.593684, "longitude": 78.96288, "address": "India"}, {"latitude": 20.593684, "longitude": 78.96288, "address": "India"}, {"latitude": 19.0759837, "longitude": 72.8776559, "address": "Mumbai, Maharashtra, India"}, {"latitude": 19.2140476, "longitude": 73.0929132, "address": "Tilak Nagar, Dombivli East, Dombivli, Maharashtra 421201, India"}, {"latitude": 18.5204303, "longitude": 73.8567437, "address": "Pune, Maharashtra, India"}, {"latitude": 20.593684, "longitude": 78.96288, "address": "India"}, {"latitude": 21.2583689, "longitude": 81.6552991, "address": "cg elite, Street Number 1, Ashok Vihar Colony, Pandri, Raipur, Chhattisgarh 492004, India"}, {"latitude": 18.5204303, "longitude": 73.8567437, "address": "Pune, Maharashtra, India"}, {"latitude": 19.7514798, "longitude": 75.7138884, "address": "Maharashtra, India"}, {"latitude": 18.5204303, "longitude": 73.8567437, "address": "Pune, Maharashtra, India"}, {"latitude": 19.7514798, "longitude": 75.7138884, "address": "Maharashtra, India"}, {"latitude": 19.9974533, "longitude": 73.78980229999999, "address": "Nashik, Maharashtra, India"}, {"latitude": 18.5204303, "longitude": 73.8567437, "address": "Pune, Maharashtra, India"}, {"latitude": 18.5204303, "longitude": 73.8567437, "address": "Pune, Maharashtra, India"}, {"latitude": 19.7514798, "longitude": 75.7138884, "address": "Maharashtra, India"}, {"latitude": 18.5204303, "longitude": 73.8567437, "address": "Pune, Maharashtra, India"}, {"latitude": 19.7514798, "longitude": 75.7138884, "address": "Maharashtra, India"}, {"latitude": 19.0759837, "longitude": 72.8776559, "address": "Mumbai, Maharashtra, India"}, {"latitude": 18.5204303, "longitude": 73.8567437, "address": "Pune, Maharashtra, India"}, {"latitude": 18.5204303, "longitude": 73.8567437, "address": "Pune, Maharashtra, India"}, {"latitude": 18.5204303, "longitude": 73.8567437, "address": "Pune, Maharashtra, India"}, {"latitude": 18.5204303, "longitude": 73.8567437, "address": "Pune, Maharashtra, India"}, {"latitude": 19.9974533, "longitude": 73.78980229999999, "address": "Nashik, Maharashtra, India"}, {"latitude": 19.9974533, "longitude": 73.78980229999999, "address": "Nashik, Maharashtra, India"}, {"latitude": 19.0759837, "longitude": 72.8776559, "address": "Mumbai, Maharashtra, India"}, {"latitude": 18.5204303, "longitude": 73.8567437, "address": "Pune, Maharashtra, India"}, {"latitude": 19.7514798, "longitude": 75.7138884, "address": "Maharashtra, India"}, {"latitude": 18.5204303, "longitude": 73.8567437, "address": "Pune, Maharashtra, India"}, {"latitude": 18.5204303, "longitude": 73.8567437, "address": "Pune, Maharashtra, India"}, {"latitude": 19.9974533, "longitude": 73.78980229999999, "address": "Nashik, Maharashtra, India"}, {"latitude": 18.5204303, "longitude": 73.8567437, "address": "Pune, Maharashtra, India"}, {"latitude": 18.5204303, "longitude": 73.8567437, "address": "Pune, Maharashtra, India"}, {"latitude": 19.7514798, "longitude": 75.7138884, "address": "Maharashtra, India"}, {"latitude": 19.7514798, "longitude": 75.7138884, "address": "Maharashtra, India"}, {"latitude": 18.5204303, "longitude": 73.8567437, "address": "Pune, Maharashtra, India"}, {"latitude": 18.5204303, "longitude": 73.8567437, "address": "Pune, Maharashtra, India"}, {"latitude": 18.5204303, "longitude": 73.8567437, "address": "Pune, Maharashtra, India"}, {"latitude": 18.5204303, "longitude": 73.8567437, "address": "Pune, Maharashtra, India"}, {"latitude": 18.5204303, "longitude": 73.8567437, "address": "Pune, Maharashtra, India"}, {"latitude": 18.5204303, "longitude": 73.8567437, "address": "Pune, Maharashtra, India"}, {"latitude": 23.022505, "longitude": 72.5713621, "address": "Ahmedabad, Gujarat, India"}, {"latitude": 20.593684, "longitude": 78.96288, "address": "India"}, {"latitude": 20.593684, "longitude": 78.96288, "address": "India"}, {"latitude": 20.593684, "longitude": 78.96288, "address": "India"}, {"latitude": 23.2599333, "longitude": 77.412615, "address": "Bhopal, Madhya Pradesh, India"}, {"latitude": 23.2599333, "longitude": 77.412615, "address": "Bhopal, Madhya Pradesh, India"}, {"latitude": 20.593684, "longitude": 78.96288, "address": "India"}, {"latitude": 20.593684, "longitude": 78.96288, "address": "India"}, {"latitude": 19.0759837, "longitude": 72.8776559, "address": "Mumbai, Maharashtra, India"}, {"latitude": 19.2140476, "longitude": 73.0929132, "address": "Tilak Nagar, Dombivli East, Dombivli, Maharashtra 421201, India"}, {"latitude": 18.5204303, "longitude": 73.8567437, "address": "Pune, Maharashtra, India"}, {"latitude": 20.593684, "longitude": 78.96288, "address": "India"}, {"latitude": 21.2583689, "longitude": 81.6552991, "address": "cg elite, Street Number 1, Ashok Vihar Colony, Pandri, Raipur, Chhattisgarh 492004, India"}, {"latitude": 18.5204303, "longitude": 73.8567437, "address": "Pune, Maharashtra, India"}, {"latitude": 19.7514798, "longitude": 75.7138884, "address": "Maharashtra, India"}, {"latitude": 18.5204303, "longitude": 73.8567437, "address": "Pune, Maharashtra, India"}, {"latitude": 19.7514798, "longitude": 75.7138884, "address": "Maharashtra, India"}, {"latitude": 19.9974533, "longitude": 73.78980229999999, "address": "Nashik, Maharashtra, India"}, {"latitude": 18.5204303, "longitude": 73.8567437, "address": "Pune, Maharashtra, India"}, {"latitude": 18.5204303, "longitude": 73.8567437, "address": "Pune, Maharashtra, India"}, {"latitude": 19.7514798, "longitude": 75.7138884, "address": "Maharashtra, India"}, {"latitude": 18.5204303, "longitude": 73.8567437, "address": "Pune, Maharashtra, India"}, {"latitude": 19.7514798, "longitude": 75.7138884, "address": "Maharashtra, India"}, {"latitude": 19.0759837, "longitude": 72.8776559, "address": "Mumbai, Maharashtra, India"}, {"latitude": 18.5204303, "longitude": 73.8567437, "address": "Pune, Maharashtra, India"}, {"latitude": 18.5204303, "longitude": 73.8567437, "address": "Pune, Maharashtra, India"}, {"latitude": 18.5204303, "longitude": 73.8567437, "address": "Pune, Maharashtra, India"}, {"latitude": 18.5204303, "longitude": 73.8567437, "address": "Pune, Maharashtra, India"}, {"latitude": 19.9974533, "longitude": 73.78980229999999, "address": "Nashik, Maharashtra, India"}, {"latitude": 19.9974533, "longitude": 73.78980229999999, "address": "Nashik, Maharashtra, India"}, {"latitude": 19.0759837, "longitude": 72.8776559, "address": "Mumbai, Maharashtra, India"}, {"latitude": 18.5204303, "longitude": 73.8567437, "address": "Pune, Maharashtra, India"}, {"latitude": 19.7514798, "longitude": 75.7138884, "address": "Maharashtra, India"}, {"latitude": 18.5204303, "longitude": 73.8567437, "address": "Pune, Maharashtra, India"}, {"latitude": 18.5204303, "longitude": 73.8567437, "address": "Pune, Maharashtra, India"}, {"latitude": 19.9974533, "longitude": 73.78980229999999, "address": "Nashik, Maharashtra, India"}, {"latitude": 18.5204303, "longitude": 73.8567437, "address": "Pune, Maharashtra, India"}, {"latitude": 18.5204303, "longitude": 73.8567437, "address": "Pune, Maharashtra, India"}, {"latitude": 19.7514798, "longitude": 75.7138884, "address": "Maharashtra, India"}, {"latitude": 19.7514798, "longitude": 75.7138884, "address": "Maharashtra, India"}, {"latitude": 18.5204303, "longitude": 73.8567437, "address": "Pune, Maharashtra, India"}, {"latitude": 18.5204303, "longitude": 73.8567437, "address": "Pune, Maharashtra, India"}, {"latitude": 18.5204303, "longitude": 73.8567437, "address": "Pune, Maharashtra, India"}, {"latitude": 18.5204303, "longitude": 73.8567437, "address": "Pune, Maharashtra, India"}, {"latitude": 18.5204303, "longitude": 73.8567437, "address": "Pune, Maharashtra, India"}, {"latitude": 18.5204303, "longitude": 73.8567437, "address": "Pune, Maharashtra, India"}, {"latitude": 18.5204303, "longitude": 73.8567437, "address": "Pune, Maharashtra, India"}, {"latitude": 19.7514798, "longitude": 75.7138884, "address": "Maharashtra, India"}, {"latitude": 19.7514798, "longitude": 75.7138884, "address": "Maharashtra, India"}, {"latitude": 18.5204303, "longitude": 73.8567437, "address": "Pune, Maharashtra, India"}, {"latitude": 19.9974533, "longitude": 73.78980229999999, "address": "Nashik, Maharashtra, India"}, {"latitude": 19.7514798, "longitude": 75.7138884, "address": "Maharashtra, India"}, {"latitude": 1.352083, "longitude": 103.819836, "address": "Singapore"}, {"latitude": 18.5204303, "longitude": 73.8567437, "address": "Pune, Maharashtra, India"}, {"latitude": 28.635308, "longitude": 77.22496, "address": "New Delhi, Delhi, India"}, {"latitude": 18.5204303, "longitude": 73.8567437, "address": "Pune, Maharashtra, India"}, {"latitude": 19.0759837, "longitude": 72.8776559, "address": "Mumbai, Maharashtra, India"}, {"latitude": 12.9715987, "longitude": 77.5945627, "address": "Bengaluru, Karnataka, India"}, {"latitude": 36.778261, "longitude": -119.4179324, "address": "California, USA"}, {"latitude": 12.9715987, "longitude": 77.5945627, "address": "Bengaluru, Karnataka, India"}, {"latitude": 34.2331373, "longitude": -102.4107493, "address": "Earth, TX 79031, USA"}, {"latitude": 30.5175359, "longitude": 76.80872649999999, "address": "Ambala Chandigarh Expressway, India"}, {"latitude": 22.7195687, "longitude": 75.8577258, "address": "Indore, Madhya Pradesh, India"}, {"latitude": 18.5704162, "longitude": 73.859549, "address": "Maharashtra 411003, India"}, {"latitude": 18.5204303, "longitude": 73.8567437, "address": "Pune, Maharashtra, India"}, {"latitude": 19.7514798, "longitude": 75.7138884, "address": "Maharashtra, India"}, {"latitude": 18.5204303, "longitude": 73.8567437, "address": "Pune, Maharashtra, India"}, {"latitude": 19.7514798, "longitude": 75.7138884, "address": "Maharashtra, India"}, {"latitude": 18.4, "longitude": 76.56, "address": "Latur, Maharashtra, India"}, {"latitude": 18.5204303, "longitude": 73.8567437, "address": "Pune, Maharashtra, India"}, {"latitude": 19.7514798, "longitude": 75.7138884, "address": "Maharashtra, India"}, {"latitude": 18.5204303, "longitude": 73.8567437, "address": "Pune, Maharashtra, India"}, {"latitude": 18.5204303, "longitude": 73.8567437, "address": "Pune, Maharashtra, India"}, {"latitude": 19.0759837, "longitude": 72.8776559, "address": "Mumbai, Maharashtra, India"}, {"latitude": 19.0759837, "longitude": 72.8776559, "address": "Mumbai, Maharashtra, India"}, {"latitude": 18.5204303, "longitude": 73.8567437, "address": "Pune, Maharashtra, India"}, {"latitude": 21.2583689, "longitude": 81.6552991, "address": "cg elite, Street Number 1, Ashok Vihar Colony, Pandri, Raipur, Chhattisgarh 492004, India"}, {"latitude": 28.4089123, "longitude": 77.3177894, "address": "Faridabad, Haryana, India"}, {"latitude": 23.022505, "longitude": 72.5713621, "address": "Ahmedabad, Gujarat, India"}, {"latitude": 20.593684, "longitude": 78.96288, "address": "India"}, {"latitude": 20.593684, "longitude": 78.96288, "address": "India"}, {"latitude": 20.593684, "longitude": 78.96288, "address": "India"}, {"latitude": 23.2599333, "longitude": 77.412615, "address": "Bhopal, Madhya Pradesh, India"}, {"latitude": 23.2599333, "longitude": 77.412615, "address": "Bhopal, Madhya Pradesh, India"}, {"latitude": 20.593684, "longitude": 78.96288, "address": "India"}, {"latitude": 20.593684, "longitude": 78.96288, "address": "India"}, {"latitude": 19.0759837, "longitude": 72.8776559, "address": "Mumbai, Maharashtra, India"}, {"latitude": 19.2140476, "longitude": 73.0929132, "address": "Tilak Nagar, Dombivli East, Dombivli, Maharashtra 421201, India"}, {"latitude": 18.5204303, "longitude": 73.8567437, "address": "Pune, Maharashtra, India"}, {"latitude": 20.593684, "longitude": 78.96288, "address": "India"}, {"latitude": 21.2583689, "longitude": 81.6552991, "address": "cg elite, Street Number 1, Ashok Vihar Colony, Pandri, Raipur, Chhattisgarh 492004, India"}, {"latitude": 18.5204303, "longitude": 73.8567437, "address": "Pune, Maharashtra, India"}, {"latitude": 19.7514798, "longitude": 75.7138884, "address": "Maharashtra, India"}, {"latitude": 18.5204303, "longitude": 73.8567437, "address": "Pune, Maharashtra, India"}, {"latitude": 19.7514798, "longitude": 75.7138884, "address": "Maharashtra, India"}, {"latitude": 19.9974533, "longitude": 73.78980229999999, "address": "Nashik, Maharashtra, India"}, {"latitude": 18.5204303, "longitude": 73.8567437, "address": "Pune, Maharashtra, India"}, {"latitude": 18.5204303, "longitude": 73.8567437, "address": "Pune, Maharashtra, India"}, {"latitude": 19.7514798, "longitude": 75.7138884, "address": "Maharashtra, India"}, {"latitude": 18.5204303, "longitude": 73.8567437, "address": "Pune, Maharashtra, India"}, {"latitude": 19.7514798, "longitude": 75.7138884, "address": "Maharashtra, India"}, {"latitude": 19.0759837, "longitude": 72.8776559, "address": "Mumbai, Maharashtra, India"}, {"latitude": 18.5204303, "longitude": 73.8567437, "address": "Pune, Maharashtra, India"}, {"latitude": 18.5204303, "longitude": 73.8567437, "address": "Pune, Maharashtra, India"}, {"latitude": 18.5204303, "longitude": 73.8567437, "address": "Pune, Maharashtra, India"}, {"latitude": 18.5204303, "longitude": 73.8567437, "address": "Pune, Maharashtra, India"}, {"latitude": 19.9974533, "longitude": 73.78980229999999, "address": "Nashik, Maharashtra, India"}, {"latitude": 19.9974533, "longitude": 73.78980229999999, "address": "Nashik, Maharashtra, India"}, {"latitude": 19.0759837, "longitude": 72.8776559, "address": "Mumbai, Maharashtra, India"}, {"latitude": 18.5204303, "longitude": 73.8567437, "address": "Pune, Maharashtra, India"}, {"latitude": 19.7514798, "longitude": 75.7138884, "address": "Maharashtra, India"}, {"latitude": 18.5204303, "longitude": 73.8567437, "address": "Pune, Maharashtra, India"}, {"latitude": 18.5204303, "longitude": 73.8567437, "address": "Pune, Maharashtra, India"}, {"latitude": 19.9974533, "longitude": 73.78980229999999, "address": "Nashik, Maharashtra, India"}, {"latitude": 18.5204303, "longitude": 73.8567437, "address": "Pune, Maharashtra, India"}, {"latitude": 18.5204303, "longitude": 73.8567437, "address": "Pune, Maharashtra, India"}, {"latitude": 19.7514798, "longitude": 75.7138884, "address": "Maharashtra, India"}, {"latitude": 19.7514798, "longitude": 75.7138884, "address": "Maharashtra, India"}, {"latitude": 18.5204303, "longitude": 73.8567437, "address": "Pune, Maharashtra, India"}, {"latitude": 18.5204303, "longitude": 73.8567437, "address": "Pune, Maharashtra, India"}, {"latitude": 18.5204303, "longitude": 73.8567437, "address": "Pune, Maharashtra, India"}, {"latitude": 18.5204303, "longitude": 73.8567437, "address": "Pune, Maharashtra, India"}, {"latitude": 18.5204303, "longitude": 73.8567437, "address": "Pune, Maharashtra, India"}, {"latitude": 18.5204303, "longitude": 73.8567437, "address": "Pune, Maharashtra, India"}, {"latitude": 18.5204303, "longitude": 73.8567437, "address": "Pune, Maharashtra, India"}, {"latitude": 19.7514798, "longitude": 75.7138884, "address": "Maharashtra, India"}, {"latitude": 19.7514798, "longitude": 75.7138884, "address": "Maharashtra, India"}, {"latitude": 18.5204303, "longitude": 73.8567437, "address": "Pune, Maharashtra, India"}, {"latitude": 18.5204303, "longitude": 73.8567437, "address": "Pune, Maharashtra, India"}, {"latitude": 20.593684, "longitude": 78.96288, "address": "India"}, {"latitude": 21.2583689, "longitude": 81.6552991, "address": "cg elite, Street Number 1, Ashok Vihar Colony, Pandri, Raipur, Chhattisgarh 492004, India"}, {"latitude": 18.5204303, "longitude": 73.8567437, "address": "Pune, Maharashtra, India"}, {"latitude": 19.7514798, "longitude": 75.7138884, "address": "Maharashtra, India"}, {"latitude": 18.5204303, "longitude": 73.8567437, "address": "Pune, Maharashtra, India"}, {"latitude": 19.7514798, "longitude": 75.7138884, "address": "Maharashtra, India"}, {"latitude": 19.9974533, "longitude": 73.78980229999999, "address": "Nashik, Maharashtra, India"}, {"latitude": 18.5204303, "longitude": 73.8567437, "address": "Pune, Maharashtra, India"}, {"latitude": 18.5204303, "longitude": 73.8567437, "address": "Pune, Maharashtra, India"}, {"latitude": 19.7514798, "longitude": 75.7138884, "address": "Maharashtra, India"}, {"latitude": 18.5204303, "longitude": 73.8567437, "address": "Pune, Maharashtra, India"}, {"latitude": 19.7514798, "longitude": 75.7138884, "address": "Maharashtra, India"}, {"latitude": 19.0759837, "longitude": 72.8776559, "address": "Mumbai, Maharashtra, India"}, {"latitude": 18.5204303, "longitude": 73.8567437, "address": "Pune, Maharashtra, India"}, {"latitude": 18.5204303, "longitude": 73.8567437, "address": "Pune, Maharashtra, India"}, {"latitude": 18.5204303, "longitude": 73.8567437, "address": "Pune, Maharashtra, India"}, {"latitude": 18.5204303, "longitude": 73.8567437, "address": "Pune, Maharashtra, India"}, {"latitude": 19.9974533, "longitude": 73.78980229999999, "address": "Nashik, Maharashtra, India"}, {"latitude": 19.9974533, "longitude": 73.78980229999999, "address": "Nashik, Maharashtra, India"}, {"latitude": 19.0759837, "longitude": 72.8776559, "address": "Mumbai, Maharashtra, India"}, {"latitude": 18.5204303, "longitude": 73.8567437, "address": "Pune, Maharashtra, India"}, {"latitude": 19.7514798, "longitude": 75.7138884, "address": "Maharashtra, India"}, {"latitude": 18.5204303, "longitude": 73.8567437, "address": "Pune, Maharashtra, India"}, {"latitude": 18.5204303, "longitude": 73.8567437, "address": "Pune, Maharashtra, India"}, {"latitude": 19.9974533, "longitude": 73.78980229999999, "address": "Nashik, Maharashtra, India"}, {"latitude": 18.5204303, "longitude": 73.8567437, "address": "Pune, Maharashtra, India"}, {"latitude": 18.5204303, "longitude": 73.8567437, "address": "Pune, Maharashtra, India"}, {"latitude": 19.7514798, "longitude": 75.7138884, "address": "Maharashtra, India"}, {"latitude": 19.7514798, "longitude": 75.7138884, "address": "Maharashtra, India"}, {"latitude": 18.5204303, "longitude": 73.8567437, "address": "Pune, Maharashtra, India"}, {"latitude": 18.5204303, "longitude": 73.8567437, "address": "Pune, Maharashtra, India"}, {"latitude": 18.5204303, "longitude": 73.8567437, "address": "Pune, Maharashtra, India"}, {"latitude": 18.5204303, "longitude": 73.8567437, "address": "Pune, Maharashtra, India"}, {"latitude": 18.5204303, "longitude": 73.8567437, "address": "Pune, Maharashtra, India"}, {"latitude": 18.5204303, "longitude": 73.8567437, "address": "Pune, Maharashtra, India"}, {"latitude": 18.5204303, "longitude": 73.8567437, "address": "Pune, Maharashtra, India"}, {"latitude": 19.7514798, "longitude": 75.7138884, "address": "Maharashtra, India"}, {"latitude": 19.7514798, "longitude": 75.7138884, "address": "Maharashtra, India"}, {"latitude": 18.5204303, "longitude": 73.8567437, "address": "Pune, Maharashtra, India"}, {"latitude": 19.9974533, "longitude": 73.78980229999999, "address": "Nashik, Maharashtra, India"}, {"latitude": 19.7514798, "longitude": 75.7138884, "address": "Maharashtra, India"}, {"latitude": 1.352083, "longitude": 103.819836, "address": "Singapore"}, {"latitude": 18.5204303, "longitude": 73.8567437, "address": "Pune, Maharashtra, India"}, {"latitude": 28.635308, "longitude": 77.22496, "address": "New Delhi, Delhi, India"}, {"latitude": 18.5204303, "longitude": 73.8567437, "address": "Pune, Maharashtra, India"}, {"latitude": 19.0759837, "longitude": 72.8776559, "address": "Mumbai, Maharashtra, India"}, {"latitude": 12.9715987, "longitude": 77.5945627, "address": "Bengaluru, Karnataka, India"}, {"latitude": 36.778261, "longitude": -119.4179324, "address": "California, USA"}, {"latitude": 12.9715987, "longitude": 77.5945627, "address": "Bengaluru, Karnataka, India"}, {"latitude": 34.2331373, "longitude": -102.4107493, "address": "Earth, TX 79031, USA"}, {"latitude": 30.5175359, "longitude": 76.80872649999999, "address": "Ambala Chandigarh Expressway, India"}, {"latitude": 22.7195687, "longitude": 75.8577258, "address": "Indore, Madhya Pradesh, India"}, {"latitude": 18.5204303, "longitude": 73.8567437, "address": "Pune, Maharashtra, India"}, {"latitude": 12.9715987, "longitude": 77.5945627, "address": "Bengaluru, Karnataka, India"}, {"latitude": 12.9141417, "longitude": 74.8559568, "address": "Mangaluru, Karnataka, India"}, {"latitude": 18.5204303, "longitude": 73.8567437, "address": "Pune, Maharashtra, India"}, {"latitude": 18.5204303, "longitude": 73.8567437, "address": "Pune, Maharashtra, India"}, {"latitude": 18.5204303, "longitude": 73.8567437, "address": "Pune, Maharashtra, India"}, {"latitude": 52.5560732, "longitude": 13.338931, "address": "Wedding, Berlin, Germany"}, {"latitude": 19.0759837, "longitude": 72.8776559, "address": "Mumbai, Maharashtra, India"}, {"latitude": 28.635308, "longitude": 77.22496, "address": "New Delhi, Delhi, India"}, {"latitude": 28.635308, "longitude": 77.22496, "address": "New Delhi, Delhi, India"}, {"latitude": 29.0587757, "longitude": 76.085601, "address": "Haryana, India"}, {"latitude": 20.593684, "longitude": 78.96288, "address": "India"}, {"latitude": 19.7514798, "longitude": 75.7138884, "address": "Maharashtra, India"}, {"latitude": 29.508879, "longitude": 76.717439, "address": "Assandh, Haryana 132046, India"}, {"latitude": 18.5204303, "longitude": 73.8567437, "address": "Pune, Maharashtra, India"}, {"latitude": 18.5204303, "longitude": 73.8567437, "address": "Pune, Maharashtra, India"}, {"latitude": 28.635308, "longitude": 77.22496, "address": "New Delhi, Delhi, India"}, {"latitude": 18.5204303, "longitude": 73.8567437, "address": "Pune, Maharashtra, India"}, {"latitude": 22.572646, "longitude": 88.36389500000001, "address": "Kolkata, West Bengal, India"}, {"latitude": 18.5204303, "longitude": 73.8567437, "address": "Pune, Maharashtra, India"}, {"latitude": 19.7514798, "longitude": 75.7138884, "address": "Maharashtra, India"}, {"latitude": 18.5204303, "longitude": 73.8567437, "address": "Pune, Maharashtra, India"}, {"latitude": 19.7514798, "longitude": 75.7138884, "address": "Maharashtra, India"}, {"latitude": 19.0759837, "longitude": 72.8776559, "address": "Mumbai, Maharashtra, India"}, {"latitude": 18.5204303, "longitude": 73.8567437, "address": "Pune, Maharashtra, India"}, {"latitude": 18.5204303, "longitude": 73.8567437, "address": "Pune, Maharashtra, India"}, {"latitude": 18.5204303, "longitude": 73.8567437, "address": "Pune, Maharashtra, India"}, {"latitude": 18.5204303, "longitude": 73.8567437, "address": "Pune, Maharashtra, India"}, {"latitude": 19.9974533, "longitude": 73.78980229999999, "address": "Nashik, Maharashtra, India"}, {"latitude": 19.9974533, "longitude": 73.78980229999999, "address": "Nashik, Maharashtra, India"}, {"latitude": 19.0759837, "longitude": 72.8776559, "address": "Mumbai, Maharashtra, India"}, {"latitude": 18.5204303, "longitude": 73.8567437, "address": "Pune, Maharashtra, India"}, {"latitude": 19.7514798, "longitude": 75.7138884, "address": "Maharashtra, India"}, {"latitude": 18.5204303, "longitude": 73.8567437, "address": "Pune, Maharashtra, India"}, {"latitude": 18.5204303, "longitude": 73.8567437, "address": "Pune, Maharashtra, India"}, {"latitude": 19.9974533, "longitude": 73.78980229999999, "address": "Nashik, Maharashtra, India"}, {"latitude": 18.5204303, "longitude": 73.8567437, "address": "Pune, Maharashtra, India"}, {"latitude": 18.5204303, "longitude": 73.8567437, "address": "Pune, Maharashtra, India"}, {"latitude": 19.7514798, "longitude": 75.7138884, "address": "Maharashtra, India"}, {"latitude": 19.7514798, "longitude": 75.7138884, "address": "Maharashtra, India"}, {"latitude": 18.5204303, "longitude": 73.8567437, "address": "Pune, Maharashtra, India"}, {"latitude": 18.5204303, "longitude": 73.8567437, "address": "Pune, Maharashtra, India"}, {"latitude": 18.5204303, "longitude": 73.8567437, "address": "Pune, Maharashtra, India"}, {"latitude": 18.5204303, "longitude": 73.8567437, "address": "Pune, Maharashtra, India"}, {"latitude": 18.5204303, "longitude": 73.8567437, "address": "Pune, Maharashtra, India"}, {"latitude": 18.5204303, "longitude": 73.8567437, "address": "Pune, Maharashtra, India"}, {"latitude": 18.5204303, "longitude": 73.8567437, "address": "Pune, Maharashtra, India"}, {"latitude": 19.7514798, "longitude": 75.7138884, "address": "Maharashtra, India"}, {"latitude": 19.7514798, "longitude": 75.7138884, "address": "Maharashtra, India"}, {"latitude": 18.5204303, "longitude": 73.8567437, "address": "Pune, Maharashtra, India"}, {"latitude": 19.9974533, "longitude": 73.78980229999999, "address": "Nashik, Maharashtra, India"}, {"latitude": 19.7514798, "longitude": 75.7138884, "address": "Maharashtra, India"}, {"latitude": 1.352083, "longitude": 103.819836, "address": "Singapore"}, {"latitude": 18.5204303, "longitude": 73.8567437, "address": "Pune, Maharashtra, India"}, {"latitude": 28.635308, "longitude": 77.22496, "address": "New Delhi, Delhi, India"}, {"latitude": 18.5204303, "longitude": 73.8567437, "address": "Pune, Maharashtra, India"}, {"latitude": 19.0759837, "longitude": 72.8776559, "address": "Mumbai, Maharashtra, India"}, {"latitude": 12.9715987, "longitude": 77.5945627, "address": "Bengaluru, Karnataka, India"}, {"latitude": 36.778261, "longitude": -119.4179324, "address": "California, USA"}, {"latitude": 12.9715987, "longitude": 77.5945627, "address": "Bengaluru, Karnataka, India"}, {"latitude": 34.2331373, "longitude": -102.4107493, "address": "Earth, TX 79031, USA"}, {"latitude": 30.5175359, "longitude": 76.80872649999999, "address": "Ambala Chandigarh Expressway, India"}, {"latitude": 22.7195687, "longitude": 75.8577258, "address": "Indore, Madhya Pradesh, India"}, {"latitude": 18.5204303, "longitude": 73.8567437, "address": "Pune, Maharashtra, India"}, {"latitude": 12.9715987, "longitude": 77.5945627, "address": "Bengaluru, Karnataka, India"}, {"latitude": 12.9141417, "longitude": 74.8559568, "address": "Mangaluru, Karnataka, India"}, {"latitude": 18.5204303, "longitude": 73.8567437, "address": "Pune, Maharashtra, India"}, {"latitude": 18.5204303, "longitude": 73.8567437, "address": "Pune, Maharashtra, India"}, {"latitude": 18.5204303, "longitude": 73.8567437, "address": "Pune, Maharashtra, India"}, {"latitude": 52.5560732, "longitude": 13.338931, "address": "Wedding, Berlin, Germany"}, {"latitude": 19.0759837, "longitude": 72.8776559, "address": "Mumbai, Maharashtra, India"}, {"latitude": 28.635308, "longitude": 77.22496, "address": "New Delhi, Delhi, India"}, {"latitude": 28.635308, "longitude": 77.22496, "address": "New Delhi, Delhi, India"}, {"latitude": 29.0587757, "longitude": 76.085601, "address": "Haryana, India"}, {"latitude": 20.593684, "longitude": 78.96288, "address": "India"}, {"latitude": 19.7514798, "longitude": 75.7138884, "address": "Maharashtra, India"}, {"latitude": 29.508879, "longitude": 76.717439, "address": "Assandh, Haryana 132046, India"}, {"latitude": 18.5204303, "longitude": 73.8567437, "address": "Pune, Maharashtra, India"}, {"latitude": 18.5204303, "longitude": 73.8567437, "address": "Pune, Maharashtra, India"}, {"latitude": 28.635308, "longitude": 77.22496, "address": "New Delhi, Delhi, India"}, {"latitude": 18.5204303, "longitude": 73.8567437, "address": "Pune, Maharashtra, India"}, {"latitude": 22.572646, "longitude": 88.36389500000001, "address": "Kolkata, West Bengal, India"}, {"latitude": 38.9071923, "longitude": -77.0368707, "address": "Washington, DC, USA"}, {"latitude": 19.0759837, "longitude": 72.8776559, "address": "Mumbai, Maharashtra, India"}, {"latitude": 19.0759837, "longitude": 72.8776559, "address": "Mumbai, Maharashtra, India"}, {"latitude": 12.9715987, "longitude": 77.5945627, "address": "Bengaluru, Karnataka, India"}, {"latitude": 12.9715987, "longitude": 77.5945627, "address": "Bengaluru, Karnataka, India"}, {"latitude": 28.635308, "longitude": 77.22496, "address": "New Delhi, Delhi, India"}, {"latitude": 19.7514798, "longitude": 75.7138884, "address": "Maharashtra, India"}, {"latitude": 18.5204303, "longitude": 73.8567437, "address": "Pune, Maharashtra, India"}, {"latitude": 19.7514798, "longitude": 75.7138884, "address": "Maharashtra, India"}, {"latitude": 18.4, "longitude": 76.56, "address": "Latur, Maharashtra, India"}, {"latitude": 18.5204303, "longitude": 73.8567437, "address": "Pune, Maharashtra, India"}, {"latitude": 19.7514798, "longitude": 75.7138884, "address": "Maharashtra, India"}, {"latitude": 18.5204303, "longitude": 73.8567437, "address": "Pune, Maharashtra, India"}, {"latitude": 18.5204303, "longitude": 73.8567437, "address": "Pune, Maharashtra, India"}, {"latitude": 19.0759837, "longitude": 72.8776559, "address": "Mumbai, Maharashtra, India"}, {"latitude": 19.0759837, "longitude": 72.8776559, "address": "Mumbai, Maharashtra, India"}, {"latitude": 18.5204303, "longitude": 73.8567437, "address": "Pune, Maharashtra, India"}, {"latitude": 21.2583689, "longitude": 81.6552991, "address": "cg elite, Street Number 1, Ashok Vihar Colony, Pandri, Raipur, Chhattisgarh 492004, India"}, {"latitude": 28.4089123, "longitude": 77.3177894, "address": "Faridabad, Haryana, India"}, {"latitude": 23.022505, "longitude": 72.5713621, "address": "Ahmedabad, Gujarat, India"}, {"latitude": 20.593684, "longitude": 78.96288, "address": "India"}, {"latitude": 20.593684, "longitude": 78.96288, "address": "India"}, {"latitude": 20.593684, "longitude": 78.96288, "address": "India"}, {"latitude": 23.2599333, "longitude": 77.412615, "address": "Bhopal, Madhya Pradesh, India"}, {"latitude": 23.2599333, "longitude": 77.412615, "address": "Bhopal, Madhya Pradesh, India"}, {"latitude": 20.593684, "longitude": 78.96288, "address": "India"}, {"latitude": 20.593684, "longitude": 78.96288, "address": "India"}, {"latitude": 19.0759837, "longitude": 72.8776559, "address": "Mumbai, Maharashtra, India"}, {"latitude": 19.2140476, "longitude": 73.0929132, "address": "Tilak Nagar, Dombivli East, Dombivli, Maharashtra 421201, India"}, {"latitude": 18.5204303, "longitude": 73.8567437, "address": "Pune, Maharashtra, India"}, {"latitude": 20.593684, "longitude": 78.96288, "address": "India"}, {"latitude": 21.2583689, "longitude": 81.6552991, "address": "cg elite, Street Number 1, Ashok Vihar Colony, Pandri, Raipur, Chhattisgarh 492004, India"}, {"latitude": 18.5204303, "longitude": 73.8567437, "address": "Pune, Maharashtra, India"}, {"latitude": 19.7514798, "longitude": 75.7138884, "address": "Maharashtra, India"}, {"latitude": 18.5204303, "longitude": 73.8567437, "address": "Pune, Maharashtra, India"}, {"latitude": 19.7514798, "longitude": 75.7138884, "address": "Maharashtra, India"}, {"latitude": 19.9974533, "longitude": 73.78980229999999, "address": "Nashik, Maharashtra, India"}, {"latitude": 18.5204303, "longitude": 73.8567437, "address": "Pune, Maharashtra, India"}, {"latitude": 18.5204303, "longitude": 73.8567437, "address": "Pune, Maharashtra, India"}, {"latitude": 19.7514798, "longitude": 75.7138884, "address": "Maharashtra, India"}, {"latitude": 18.5204303, "longitude": 73.8567437, "address": "Pune, Maharashtra, India"}, {"latitude": 19.7514798, "longitude": 75.7138884, "address": "Maharashtra, India"}, {"latitude": 19.0759837, "longitude": 72.8776559, "address": "Mumbai, Maharashtra, India"}, {"latitude": 18.5204303, "longitude": 73.8567437, "address": "Pune, Maharashtra, India"}, {"latitude": 18.5204303, "longitude": 73.8567437, "address": "Pune, Maharashtra, India"}, {"latitude": 18.5204303, "longitude": 73.8567437, "address": "Pune, Maharashtra, India"}, {"latitude": 18.5204303, "longitude": 73.8567437, "address": "Pune, Maharashtra, India"}, {"latitude": 19.9974533, "longitude": 73.78980229999999, "address": "Nashik, Maharashtra, India"}, {"latitude": 19.9974533, "longitude": 73.78980229999999, "address": "Nashik, Maharashtra, India"}, {"latitude": 19.0759837, "longitude": 72.8776559, "address": "Mumbai, Maharashtra, India"}, {"latitude": 18.5204303, "longitude": 73.8567437, "address": "Pune, Maharashtra, India"}, {"latitude": 19.7514798, "longitude": 75.7138884, "address": "Maharashtra, India"}, {"latitude": 18.5204303, "longitude": 73.8567437, "address": "Pune, Maharashtra, India"}, {"latitude": 18.5204303, "longitude": 73.8567437, "address": "Pune, Maharashtra, India"}, {"latitude": 19.9974533, "longitude": 73.78980229999999, "address": "Nashik, Maharashtra, India"}, {"latitude": 18.5204303, "longitude": 73.8567437, "address": "Pune, Maharashtra, India"}, {"latitude": 18.5204303, "longitude": 73.8567437, "address": "Pune, Maharashtra, India"}, {"latitude": 19.7514798, "longitude": 75.7138884, "address": "Maharashtra, India"}, {"latitude": 19.7514798, "longitude": 75.7138884, "address": "Maharashtra, India"}, {"latitude": 18.5204303, "longitude": 73.8567437, "address": "Pune, Maharashtra, India"}, {"latitude": 18.5204303, "longitude": 73.8567437, "address": "Pune, Maharashtra, India"}, {"latitude": 18.5204303, "longitude": 73.8567437, "address": "Pune, Maharashtra, India"}, {"latitude": 18.5204303, "longitude": 73.8567437, "address": "Pune, Maharashtra, India"}, {"latitude": 18.5204303, "longitude": 73.8567437, "address": "Pune, Maharashtra, India"}, {"latitude": 18.5204303, "longitude": 73.8567437, "address": "Pune, Maharashtra, India"}, {"latitude": 18.5204303, "longitude": 73.8567437, "address": "Pune, Maharashtra, India"}, {"latitude": 19.7514798, "longitude": 75.7138884, "address": "Maharashtra, India"}, {"latitude": 19.7514798, "longitude": 75.7138884, "address": "Maharashtra, India"}, {"latitude": 18.5204303, "longitude": 73.8567437, "address": "Pune, Maharashtra, India"}, {"latitude": 19.9974533, "longitude": 73.78980229999999, "address": "Nashik, Maharashtra, India"}, {"latitude": 19.7514798, "longitude": 75.7138884, "address": "Maharashtra, India"}, {"latitude": 18.5204303, "longitude": 73.8567437, "address": "Pune, Maharashtra, India"}, {"latitude": 18.5204303, "longitude": 73.8567437, "address": "Pune, Maharashtra, India"}, {"latitude": 18.5204303, "longitude": 73.8567437, "address": "Pune, Maharashtra, India"}, {"latitude": 18.5204303, "longitude": 73.8567437, "address": "Pune, Maharashtra, India"}, {"latitude": 18.5204303, "longitude": 73.8567437, "address": "Pune, Maharashtra, India"}, {"latitude": 18.5204303, "longitude": 73.8567437, "address": "Pune, Maharashtra, India"}, {"latitude": 18.5204303, "longitude": 73.8567437, "address": "Pune, Maharashtra, India"}, {"latitude": 19.7514798, "longitude": 75.7138884, "address": "Maharashtra, India"}, {"latitude": 19.2609958, "longitude": 76.77666500000001, "address": "Parbhani, Maharashtra, India"}, {"latitude": 18.5204303, "longitude": 73.8567437, "address": "Pune, Maharashtra, India"}, {"latitude": 18.5204303, "longitude": 73.8567437, "address": "Pune, Maharashtra, India"}, {"latitude": 28.635308, "longitude": 77.22496, "address": "New Delhi, Delhi, India"}, {"latitude": 18.5704162, "longitude": 73.859549, "address": "Maharashtra 411003, India"}, {"latitude": 18.5204303, "longitude": 73.8567437, "address": "Pune, Maharashtra, India"}, {"latitude": 19.7514798, "longitude": 75.7138884, "address": "Maharashtra, India"}, {"latitude": 18.5204303, "longitude": 73.8567437, "address": "Pune, Maharashtra, India"}, {"latitude": 19.7514798, "longitude": 75.7138884, "address": "Maharashtra, India"}, {"latitude": 18.4, "longitude": 76.56, "address": "Latur, Maharashtra, India"}, {"latitude": 18.5204303, "longitude": 73.8567437, "address": "Pune, Maharashtra, India"}, {"latitude": 19.7514798, "longitude": 75.7138884, "address": "Maharashtra, India"}, {"latitude": 18.5204303, "longitude": 73.8567437, "address": "Pune, Maharashtra, India"}, {"latitude": 18.5204303, "longitude": 73.8567437, "address": "Pune, Maharashtra, India"}, {"latitude": 19.0759837, "longitude": 72.8776559, "address": "Mumbai, Maharashtra, India"}, {"latitude": 19.0759837, "longitude": 72.8776559, "address": "Mumbai, Maharashtra, India"}, {"latitude": 18.5204303, "longitude": 73.8567437, "address": "Pune, Maharashtra, India"}, {"latitude": 21.2583689, "longitude": 81.6552991, "address": "cg elite, Street Number 1, Ashok Vihar Colony, Pandri, Raipur, Chhattisgarh 492004, India"}, {"latitude": 28.4089123, "longitude": 77.3177894, "address": "Faridabad, Haryana, India"}, {"latitude": 23.022505, "longitude": 72.5713621, "address": "Ahmedabad, Gujarat, India"}, {"latitude": 20.593684, "longitude": 78.96288, "address": "India"}, {"latitude": 20.593684, "longitude": 78.96288, "address": "India"}, {"latitude": 20.593684, "longitude": 78.96288, "address": "India"}, {"latitude": 23.2599333, "longitude": 77.412615, "address": "Bhopal, Madhya Pradesh, India"}, {"latitude": 23.2599333, "longitude": 77.412615, "address": "Bhopal, Madhya Pradesh, India"}, {"latitude": 20.593684, "longitude": 78.96288, "address": "India"}, {"latitude": 20.593684, "longitude": 78.96288, "address": "India"}, {"latitude": 19.0759837, "longitude": 72.8776559, "address": "Mumbai, Maharashtra, India"}, {"latitude": 19.2140476, "longitude": 73.0929132, "address": "Tilak Nagar, Dombivli East, Dombivli, Maharashtra 421201, India"}, {"latitude": 18.5204303, "longitude": 73.8567437, "address": "Pune, Maharashtra, India"}, {"latitude": 20.593684, "longitude": 78.96288, "address": "India"}, {"latitude": 21.2583689, "longitude": 81.6552991, "address": "cg elite, Street Number 1, Ashok Vihar Colony, Pandri, Raipur, Chhattisgarh 492004, India"}, {"latitude": 18.5204303, "longitude": 73.8567437, "address": "Pune, Maharashtra, India"}, {"latitude": 19.7514798, "longitude": 75.7138884, "address": "Maharashtra, India"}, {"latitude": 18.5204303, "longitude": 73.8567437, "address": "Pune, Maharashtra, India"}, {"latitude": 19.7514798, "longitude": 75.7138884, "address": "Maharashtra, India"}, {"latitude": 19.9974533, "longitude": 73.78980229999999, "address": "Nashik, Maharashtra, India"}, {"latitude": 18.5204303, "longitude": 73.8567437, "address": "Pune, Maharashtra, India"}, {"latitude": 18.5204303, "longitude": 73.8567437, "address": "Pune, Maharashtra, India"}, {"latitude": 19.7514798, "longitude": 75.7138884, "address": "Maharashtra, India"}, {"latitude": 18.5204303, "longitude": 73.8567437, "address": "Pune, Maharashtra, India"}, {"latitude": 19.7514798, "longitude": 75.7138884, "address": "Maharashtra, India"}, {"latitude": 19.0759837, "longitude": 72.8776559, "address": "Mumbai, Maharashtra, India"}, {"latitude": 18.5204303, "longitude": 73.8567437, "address": "Pune, Maharashtra, India"}, {"latitude": 18.5204303, "longitude": 73.8567437, "address": "Pune, Maharashtra, India"}, {"latitude": 18.5204303, "longitude": 73.8567437, "address": "Pune, Maharashtra, India"}, {"latitude": 18.5204303, "longitude": 73.8567437, "address": "Pune, Maharashtra, India"}, {"latitude": 19.9974533, "longitude": 73.78980229999999, "address": "Nashik, Maharashtra, India"}, {"latitude": 19.9974533, "longitude": 73.78980229999999, "address": "Nashik, Maharashtra, India"},