[{"latitude": 21.2786567, "longitude": 81.8661442, "address": "Chhattisgarh, India"}, {"latitude": 21.2786567, "longitude": 81.8661442, "address": "Chhattisgarh, India"}, {"latitude": 21.2786567, "longitude": 81.8661442, "address": "Chhattisgarh, India"}, {"latitude": 21.2786567, "longitude": 81.8661442, "address": "Chhattisgarh, India"}, {"latitude": 21.2786567, "longitude": 81.8661442, "address": "Chhattisgarh, India"}, {"latitude": 21.2513844, "longitude": 81.62964130000002, "address": "Raipur, Chhattisgarh, India"}, {"latitude": 21.1458004, "longitude": 79.0881546, "address": "Nagpur, Maharashtra, India"}, {"latitude": 21.1458004, "longitude": 79.0881546, "address": "Nagpur, Maharashtra, India"}, {"latitude": 20.7, "longitude": 77, "address": "Akola, Maharashtra, India"}, {"latitude": 21.2786567, "longitude": 81.8661442, "address": "Chhattisgarh, India"}, {"latitude": 21.2786567, "longitude": 81.8661442, "address": "Chhattisgarh, India"}, {"latitude": 21.1458004, "longitude": 79.0881546, "address": "Nagpur, Maharashtra, India"}, {"latitude": 20.3887937, "longitude": 78.1204073, "address": "Yavatmal, Maharashtra, India"}, {"latitude": 21.19, "longitude": 81.28, "address": "Durg, Chhattisgarh, India"}, {"latitude": 21.1458004, "longitude": 79.0881546, "address": "Nagpur, Maharashtra, India"}, {"latitude": 21.19, "longitude": 81.28, "address": "Durg, Chhattisgarh, India"}, {"latitude": 21.19, "longitude": 81.28, "address": "Durg, Chhattisgarh, India"}, {"latitude": 19.9974533, "longitude": 73.78980229999999, "address": "Nashik, Maharashtra, India"}, {"latitude": 21.2513844, "longitude": 81.62964130000002, "address": "Raipur, Chhattisgarh, India"}, {"latitude": 19.2609958, "longitude": 76.77666500000001, "address": "Parbhani, Maharashtra, India"}, {"latitude": 18.5204303, "longitude": 73.8567437, "address": "Pune, Maharashtra, India"}, {"latitude": 21.1458004, "longitude": 79.0881546, "address": "Nagpur, Maharashtra, India"}, {"latitude": 21.17, "longitude": 79.64999999999999, "address": "Bhandara, Maharashtra, India"}, {"latitude": 19.9974533, "longitude": 73.78980229999999, "address": "Nashik, Maharashtra, India"}, {"latitude": 21.1458004, "longitude": 79.0881546, "address": "Nagpur, Maharashtra, India"}, {"latitude": 21.1458004, "longitude": 79.0881546, "address": "Nagpur, Maharashtra, India"}, {"latitude": 19.2609958, "longitude": 76.77666500000001, "address": "Parbhani, Maharashtra, India"}, {"latitude": 19.2609958, "longitude": 76.77666500000001, "address": "Parbhani, Maharashtra, India"}, {"latitude": 21.2513844, "longitude": 81.62964130000002, "address": "Raipur, Chhattisgarh, India"}, {"latitude": 21.2513844, "longitude": 81.62964130000002, "address": "Raipur, Chhattisgarh, India"}, {"latitude": 21.17, "longitude": 79.64999999999999, "address": "Bhandara, Maharashtra, India"}, {"latitude": 21.2513844, "longitude": 81.62964130000002, "address": "Raipur, Chhattisgarh, India"}, {"latitude": 19.9974533, "longitude": 73.78980229999999, "address": "Nashik, Maharashtra, India"}, {"latitude": 19.9974533, "longitude": 73.78980229999999, "address": "Nashik, Maharashtra, India"}, {"latitude": 21.1458004, "longitude": 79.0881546, "address": "Nagpur, Maharashtra, India"}, {"latitude": 21.1458004, "longitude": 79.0881546, "address": "Nagpur, Maharashtra, India"}, {"latitude": 21.1458004, "longitude": 79.0881546, "address": "Nagpur, Maharashtra, India"}, {"latitude": 19.9974533, "longitude": 73.78980229999999, "address": "Nashik, Maharashtra, India"}, {"latitude": 19.9974533, "longitude": 73.78980229999999, "address": "Nashik, Maharashtra, India"}, {"latitude": 21.1458004, "longitude": 79.0881546, "address": "Nagpur, Maharashtra, India"}, {"latitude": 21.2786567, "longitude": 81.8661442, "address": "Chhattisgarh, India"}, {"latitude": 21.2786567, "longitude": 81.8661442, "address": "Chhattisgarh, India"}, {"latitude": 22.6054858, "longitude": 77.75354399999999, "address": "Itarsi, Madhya Pradesh, India"}, {"latitude": 21.2513844, "longitude": 81.62964130000002, "address": "Raipur, Chhattisgarh, India"}, {"latitude": 20.7, "longitude": 77, "address": "Akola, Maharashtra, India"}, {"latitude": 22.057437, "longitude": 78.9381729, "address": "Chhindwara, Madhya Pradesh 480001, India"}, {"latitude": 19.2609958, "longitude": 76.77666500000001, "address": "Parbhani, Maharashtra, India"}, {"latitude": 20.593684, "longitude": 78.96288, "address": "India"}, {"latitude": 21.2513844, "longitude": 81.62964130000002, "address": "Raipur, Chhattisgarh, India"}, {"latitude": 21.1458004, "longitude": 79.0881546, "address": "Nagpur, Maharashtra, India"}, {"latitude": 21.1458004, "longitude": 79.0881546, "address": "Nagpur, Maharashtra, India"}, {"latitude": 21.1458004, "longitude": 79.0881546, "address": "Nagpur, Maharashtra, India"}, {"latitude": 19.0759837, "longitude": 72.8776559, "address": "Mumbai, Maharashtra, India"}, {"latitude": 19.9974533, "longitude": 73.78980229999999, "address": "Nashik, Maharashtra, India"}, {"latitude": 22.6054858, "longitude": 77.75354399999999, "address": "Itarsi, Madhya Pradesh, India"}, {"latitude": 19.2609958, "longitude": 76.77666500000001, "address": "Parbhani, Maharashtra, India"}, {"latitude": 19.0759837, "longitude": 72.8776559, "address": "Mumbai, Maharashtra, India"}, {"latitude": 21.1458004, "longitude": 79.0881546, "address": "Nagpur, Maharashtra, India"}, {"latitude": 21.1458004, "longitude": 79.0881546, "address": "Nagpur, Maharashtra, India"}, {"latitude": 21.2786567, "longitude": 81.8661442, "address": "Chhattisgarh, India"}, {"latitude": 19.9974533, "longitude": 73.78980229999999, "address": "Nashik, Maharashtra, India"}, {"latitude": 19.0759837, "longitude": 72.8776559, "address": "Mumbai, Maharashtra, India"}, {"latitude": 19.0759837, "longitude": 72.8776559, "address": "Mumbai, Maharashtra, India"}, {"latitude": 21.1458004, "longitude": 79.0881546, "address": "Nagpur, Maharashtra, India"}, {"latitude": 21.2786567, "longitude": 81.8661442, "address": "Chhattisgarh, India"}, {"latitude": 21.2786567, "longitude": 81.8661442, "address": "Chhattisgarh, India"}, {"latitude": 20.593684, "longitude": 78.96288, "address": "India"}, {"latitude": 21.1458004, "longitude": 79.0881546, "address": "Nagpur, Maharashtra, India"}, {"latitude": 21.2786567, "longitude": 81.8661442, "address": "Chhattisgarh, India"}, {"latitude": 19.9974533, "longitude": 73.78980229999999, "address": "Nashik, Maharashtra, India"}, {"latitude": 21.2786567, "longitude": 81.8661442, "address": "Chhattisgarh, India"}, {"latitude": 21.1458004, "longitude": 79.0881546, "address": "Nagpur, Maharashtra, India"}, {"latitude": 21.1458004, "longitude": 79.0881546, "address": "Nagpur, Maharashtra, India"}, {"latitude": 19.9974533, "longitude": 73.78980229999999, "address": "Nashik, Maharashtra, India"}, {"latitude": 20.593684, "longitude": 78.96288, "address": "India"}, {"latitude": 28.635308, "longitude": 77.22496, "address": "New Delhi, Delhi, India"}, {"latitude": 21.2786567, "longitude": 81.8661442, "address": "Chhattisgarh, India"}, {"latitude": 21.1458004, "longitude": 79.0881546, "address": "Nagpur, Maharashtra, India"}, {"latitude": 19.0759837, "longitude": 72.8776559, "address": "Mumbai, Maharashtra, India"}, {"latitude": 21.17, "longitude": 79.64999999999999, "address": "Bhandara, Maharashtra, India"}, {"latitude": 21.1458004, "longitude": 79.0881546, "address": "Nagpur, Maharashtra, India"}, {"latitude": 22.8045665, "longitude": 86.2028754, "address": "Jamshedpur, Jharkhand, India"}, {"latitude": 21.2786567, "longitude": 81.8661442, "address": "Chhattisgarh, India"}, {"latitude": 21.2786567, "longitude": 81.8661442, "address": "Chhattisgarh, India"}, {"latitude": 21.2786567, "longitude": 81.8661442, "address": "Chhattisgarh, India"}, {"latitude": 21.2786567, "longitude": 81.8661442, "address": "Chhattisgarh, India"}, {"latitude": 21.2786567, "longitude": 81.8661442, "address": "Chhattisgarh, India"}, {"latitude": 21.2513844, "longitude": 81.62964130000002, "address": "Raipur, Chhattisgarh, India"}, {"latitude": 21.1458004, "longitude": 79.0881546, "address": "Nagpur, Maharashtra, India"}, {"latitude": 21.1458004, "longitude": 79.0881546, "address": "Nagpur, Maharashtra, India"}, {"latitude": 20.7, "longitude": 77, "address": "Akola, Maharashtra, India"}, {"latitude": 21.2786567, "longitude": 81.8661442, "address": "Chhattisgarh, India"}, {"latitude": 21.2786567, "longitude": 81.8661442, "address": "Chhattisgarh, India"}, {"latitude": 21.1458004, "longitude": 79.0881546, "address": "Nagpur, Maharashtra, India"}, {"latitude": 20.3887937, "longitude": 78.1204073, "address": "Yavatmal, Maharashtra, India"}, {"latitude": 21.19, "longitude": 81.28, "address": "Durg, Chhattisgarh, India"}, {"latitude": 21.1458004, "longitude": 79.0881546, "address": "Nagpur, Maharashtra, India"}, {"latitude": 21.19, "longitude": 81.28, "address": "Durg, Chhattisgarh, India"}, {"latitude": 21.19, "longitude": 81.28, "address": "Durg, Chhattisgarh, India"}, {"latitude": 19.9974533, "longitude": 73.78980229999999, "address": "Nashik, Maharashtra, India"}, {"latitude": 21.2513844, "longitude": 81.62964130000002, "address": "Raipur, Chhattisgarh, India"}, {"latitude": 19.2609958, "longitude": 76.77666500000001, "address": "Parbhani, Maharashtra, India"}, {"latitude": 18.5204303, "longitude": 73.8567437, "address": "Pune, Maharashtra, India"}, {"latitude": 21.1458004, "longitude": 79.0881546, "address": "Nagpur, Maharashtra, India"}, {"latitude": 21.17, "longitude": 79.64999999999999, "address": "Bhandara, Maharashtra, India"}, {"latitude": 19.9974533, "longitude": 73.78980229999999, "address": "Nashik, Maharashtra, India"}, {"latitude": 21.1458004, "longitude": 79.0881546, "address": "Nagpur, Maharashtra, India"}, {"latitude": 21.1458004, "longitude": 79.0881546, "address": "Nagpur, Maharashtra, India"}, {"latitude": 19.2609958, "longitude": 76.77666500000001, "address": "Parbhani, Maharashtra, India"}, {"latitude": 19.2609958, "longitude": 76.77666500000001, "address": "Parbhani, Maharashtra, India"}, {"latitude": 21.2513844, "longitude": 81.62964130000002, "address": "Raipur, Chhattisgarh, India"}, {"latitude": 21.2513844, "longitude": 81.62964130000002, "address": "Raipur, Chhattisgarh, India"}, {"latitude": 21.17, "longitude": 79.64999999999999, "address": "Bhandara, Maharashtra, India"}, {"latitude": 21.2513844, "longitude": 81.62964130000002, "address": "Raipur, Chhattisgarh, India"}, {"latitude": 19.9974533, "longitude": 73.78980229999999, "address": "Nashik, Maharashtra, India"}, {"latitude": 19.9974533, "longitude": 73.78980229999999, "address": "Nashik, Maharashtra, India"}, {"latitude": 21.1458004, "longitude": 79.0881546, "address": "Nagpur, Maharashtra, India"}, {"latitude": 21.1458004, "longitude": 79.0881546, "address": "Nagpur, Maharashtra, India"}, {"latitude": 21.1458004, "longitude": 79.0881546, "address": "Nagpur, Maharashtra, India"}, {"latitude": 19.9974533, "longitude": 73.78980229999999, "address": "Nashik, Maharashtra, India"}, {"latitude": 19.9974533, "longitude": 73.78980229999999, "address": "Nashik, Maharashtra, India"}, {"latitude": 21.1458004, "longitude": 79.0881546, "address": "Nagpur, Maharashtra, India"}, {"latitude": 21.2786567, "longitude": 81.8661442, "address": "Chhattisgarh, India"}, {"latitude": 21.2786567, "longitude": 81.8661442, "address": "Chhattisgarh, India"}, {"latitude": 22.6054858, "longitude": 77.75354399999999, "address": "Itarsi, Madhya Pradesh, India"}, {"latitude": 21.2513844, "longitude": 81.62964130000002, "address": "Raipur, Chhattisgarh, India"}, {"latitude": 20.7, "longitude": 77, "address": "Akola, Maharashtra, India"}, {"latitude": 22.057437, "longitude": 78.9381729, "address": "Chhindwara, Madhya Pradesh 480001, India"}, {"latitude": 19.2609958, "longitude": 76.77666500000001, "address": "Parbhani, Maharashtra, India"}, {"latitude": 20.593684, "longitude": 78.96288, "address": "India"}, {"latitude": 21.2513844, "longitude": 81.62964130000002, "address": "Raipur, Chhattisgarh, India"}, {"latitude": 21.1458004, "longitude": 79.0881546, "address": "Nagpur, Maharashtra, India"}, {"latitude": 21.1458004, "longitude": 79.0881546, "address": "Nagpur, Maharashtra, India"}, {"latitude": 21.1458004, "longitude": 79.0881546, "address": "Nagpur, Maharashtra, India"}, {"latitude": 19.0759837, "longitude": 72.8776559, "address": "Mumbai, Maharashtra, India"}, {"latitude": 19.9974533, "longitude": 73.78980229999999, "address": "Nashik, Maharashtra, India"}, {"latitude": 22.6054858, "longitude": 77.75354399999999, "address": "Itarsi, Madhya Pradesh, India"}, {"latitude": 19.2609958, "longitude": 76.77666500000001, "address": "Parbhani, Maharashtra, India"}, {"latitude": 19.0759837, "longitude": 72.8776559, "address": "Mumbai, Maharashtra, India"}, {"latitude": 21.1458004, "longitude": 79.0881546, "address": "Nagpur, Maharashtra, India"}, {"latitude": 21.1458004, "longitude": 79.0881546, "address": "Nagpur, Maharashtra, India"}, {"latitude": 21.2786567, "longitude": 81.8661442, "address": "Chhattisgarh, India"}, {"latitude": 19.9974533, "longitude": 73.78980229999999, "address": "Nashik, Maharashtra, India"}, {"latitude": 19.0759837, "longitude": 72.8776559, "address": "Mumbai, Maharashtra, India"}, {"latitude": 19.0759837, "longitude": 72.8776559, "address": "Mumbai, Maharashtra, India"}, {"latitude": 21.1458004, "longitude": 79.0881546, "address": "Nagpur, Maharashtra, India"}, {"latitude": 21.2786567, "longitude": 81.8661442, "address": "Chhattisgarh, India"}, {"latitude": 21.2786567, "longitude": 81.8661442, "address": "Chhattisgarh, India"}, {"latitude": 20.593684, "longitude": 78.96288, "address": "India"}, {"latitude": 21.1458004, "longitude": 79.0881546, "address": "Nagpur, Maharashtra, India"}, {"latitude": 21.2786567, "longitude": 81.8661442, "address": "Chhattisgarh, India"}, {"latitude": 19.9974533, "longitude": 73.78980229999999, "address": "Nashik, Maharashtra, India"}, {"latitude": 21.2786567, "longitude": 81.8661442, "address": "Chhattisgarh, India"}, {"latitude": 21.1458004, "longitude": 79.0881546, "address": "Nagpur, Maharashtra, India"}, {"latitude": 21.1458004, "longitude": 79.0881546, "address": "Nagpur, Maharashtra, India"}, {"latitude": 19.9974533, "longitude": 73.78980229999999, "address": "Nashik, Maharashtra, India"}, {"latitude": 20.593684, "longitude": 78.96288, "address": "India"}, {"latitude": 28.635308, "longitude": 77.22496, "address": "New Delhi, Delhi, India"}, {"latitude": 21.2786567, "longitude": 81.8661442, "address": "Chhattisgarh, India"}, {"latitude": 21.2786567, "longitude": 81.8661442, "address": "Chhattisgarh, India"}, {"latitude": 26.9124336, "longitude": 75.7872709, "address": "Jaipur, Rajasthan, India"}, {"latitude": 21.1458004, "longitude": 79.0881546, "address": "Nagpur, Maharashtra, India"}, {"latitude": 21.1458004, "longitude": 79.0881546, "address": "Nagpur, Maharashtra, India"}, {"latitude": 21.1458004, "longitude": 79.0881546, "address": "Nagpur, Maharashtra, India"}, {"latitude": 21.2786567, "longitude": 81.8661442, "address": "Chhattisgarh, India"}, {"latitude": 28.635308, "longitude": 77.22496, "address": "New Delhi, Delhi, India"}, {"latitude": 21.2786567, "longitude": 81.8661442, "address": "Chhattisgarh, India"}, {"latitude": 21.2786567, "longitude": 81.8661442, "address": "Chhattisgarh, India"}, {"latitude": 19.8761653, "longitude": 75.3433139, "address": "Aurangabad, Maharashtra, India"}, {"latitude": 21.1458004, "longitude": 79.0881546, "address": "Nagpur, Maharashtra, India"}, {"latitude": 21.2786567, "longitude": 81.8661442, "address": "Chhattisgarh, India"}, {"latitude": 21.2786567, "longitude": 81.8661442, "address": "Chhattisgarh, India"}, {"latitude": 21.2786567, "longitude": 81.8661442, "address": "Chhattisgarh, India"}, {"latitude": 21.1458004, "longitude": 79.0881546, "address": "Nagpur, Maharashtra, India"}, {"latitude": 21.2786567, "longitude": 81.8661442, "address": "Chhattisgarh, India"}, {"latitude": 19.8761653, "longitude": 75.3433139, "address": "Aurangabad, Maharashtra, India"}, {"latitude": 21.2786567, "longitude": 81.8661442, "address": "Chhattisgarh, India"}, {"latitude": 21.2786567, "longitude": 81.8661442, "address": "Chhattisgarh, India"}, {"latitude": 21.2786567, "longitude": 81.8661442, "address": "Chhattisgarh, India"}, {"latitude": 21.2786567, "longitude": 81.8661442, "address": "Chhattisgarh, India"}, {"latitude": 21.1458004, "longitude": 79.0881546, "address": "Nagpur, Maharashtra, India"}, {"latitude": 21.2786567, "longitude": 81.8661442, "address": "Chhattisgarh, India"}, {"latitude": 19.9974533, "longitude": 73.78980229999999, "address": "Nashik, Maharashtra, India"}, {"latitude": 21.2513844, "longitude": 81.62964130000002, "address": "Raipur, Chhattisgarh, India"}, {"latitude": 21.2513844, "longitude": 81.62964130000002, "address": "Raipur, Chhattisgarh, India"}, {"latitude": 21.1458004, "longitude": 79.0881546, "address": "Nagpur, Maharashtra, India"}, {"latitude": 19.9974533, "longitude": 73.78980229999999, "address": "Nashik, Maharashtra, India"}, {"latitude": 21.1458004, "longitude": 79.0881546, "address": "Nagpur, Maharashtra, India"}, {"latitude": 21.1458004, "longitude": 79.0881546, "address": "Nagpur, Maharashtra, India"}, {"latitude": 19.9974533, "longitude": 73.78980229999999, "address": "Nashik, Maharashtra, India"}, {"latitude": 16.7375089, "longitude": 78.0081221, "address": "Mahbubnagar, Telangana, India"}, {"latitude": 21.1458004, "longitude": 79.0881546, "address": "Nagpur, Maharashtra, India"}, {"latitude": 19.9974533, "longitude": 73.78980229999999, "address": "Nashik, Maharashtra, India"}, {"latitude": 19.9974533, "longitude": 73.78980229999999, "address": "Nashik, Maharashtra, India"}, {"latitude": 21.17, "longitude": 79.64999999999999, "address": "Bhandara, Maharashtra, India"}, {"latitude": 21.1458004, "longitude": 79.0881546, "address": "Nagpur, Maharashtra, India"}, {"latitude": 22.8045665, "longitude": 86.2028754, "address": "Jamshedpur, Jharkhand, India"}, {"latitude": 21.2786567, "longitude": 81.8661442, "address": "Chhattisgarh, India"}, {"latitude": 21.2786567, "longitude": 81.8661442, "address": "Chhattisgarh, India"}, {"latitude": 21.2786567, "longitude": 81.8661442, "address": "Chhattisgarh, India"}, {"latitude": 21.2786567, "longitude": 81.8661442, "address": "Chhattisgarh, India"}, {"latitude": 21.2786567, "longitude": 81.8661442, "address": "Chhattisgarh, India"}, {"latitude": 21.2513844, "longitude": 81.62964130000002, "address": "Raipur, Chhattisgarh, India"}, {"latitude": 21.1458004, "longitude": 79.0881546, "address": "Nagpur, Maharashtra, India"}, {"latitude": 21.1458004, "longitude": 79.0881546, "address": "Nagpur, Maharashtra, India"}, {"latitude": 20.7, "longitude": 77, "address": "Akola, Maharashtra, India"}, {"latitude": 21.2786567, "longitude": 81.8661442, "address": "Chhattisgarh, India"}, {"latitude": 21.2786567, "longitude": 81.8661442, "address": "Chhattisgarh, India"}, {"latitude": 21.1458004, "longitude": 79.0881546, "address": "Nagpur, Maharashtra, India"}, {"latitude": 20.3887937, "longitude": 78.1204073, "address": "Yavatmal, Maharashtra, India"}, {"latitude": 21.19, "longitude": 81.28, "address": "Durg, Chhattisgarh, India"}, {"latitude": 21.1458004, "longitude": 79.0881546, "address": "Nagpur, Maharashtra, India"}, {"latitude": 21.19, "longitude": 81.28, "address": "Durg, Chhattisgarh, India"}, {"latitude": 21.19, "longitude": 81.28, "address": "Durg, Chhattisgarh, India"}, {"latitude": 19.9974533, "longitude": 73.78980229999999, "address": "Nashik, Maharashtra, India"}, {"latitude": 21.2513844, "longitude": 81.62964130000002, "address": "Raipur, Chhattisgarh, India"}, {"latitude": 19.2609958, "longitude": 76.77666500000001, "address": "Parbhani, Maharashtra, India"}, {"latitude": 18.5204303, "longitude": 73.8567437, "address": "Pune, Maharashtra, India"}, {"latitude": 21.1458004, "longitude": 79.0881546, "address": "Nagpur, Maharashtra, India"}, {"latitude": 21.17, "longitude": 79.64999999999999, "address": "Bhandara, Maharashtra, India"}, {"latitude": 19.9974533, "longitude": 73.78980229999999, "address": "Nashik, Maharashtra, India"}, {"latitude": 21.1458004, "longitude": 79.0881546, "address": "Nagpur, Maharashtra, India"}, {"latitude": 21.1458004, "longitude": 79.0881546, "address": "Nagpur, Maharashtra, India"}, {"latitude": 19.2609958, "longitude": 76.77666500000001, "address": "Parbhani, Maharashtra, India"}, {"latitude": 19.2609958, "longitude": 76.77666500000001, "address": "Parbhani, Maharashtra, India"}, {"latitude": 21.2513844, "longitude": 81.62964130000002, "address": "Raipur, Chhattisgarh, India"}, {"latitude": 21.2513844, "longitude": 81.62964130000002, "address": "Raipur, Chhattisgarh, India"}, {"latitude": 21.17, "longitude": 79.64999999999999, "address": "Bhandara, Maharashtra, India"}, {"latitude": 21.2513844, "longitude": 81.62964130000002, "address": "Raipur, Chhattisgarh, India"}, {"latitude": 19.9974533, "longitude": 73.78980229999999, "address": "Nashik, Maharashtra, India"}, {"latitude": 19.9974533, "longitude": 73.78980229999999, "address": "Nashik, Maharashtra, India"}, {"latitude": 21.1458004, "longitude": 79.0881546, "address": "Nagpur, Maharashtra, India"}, {"latitude": 21.1458004, "longitude": 79.0881546, "address": "Nagpur, Maharashtra, India"}, {"latitude": 21.1458004, "longitude": 79.0881546, "address": "Nagpur, Maharashtra, India"}, {"latitude": 19.9974533, "longitude": 73.78980229999999, "address": "Nashik, Maharashtra, India"}, {"latitude": 19.9974533, "longitude": 73.78980229999999, "address": "Nashik, Maharashtra, India"}, {"latitude": 21.1458004, "longitude": 79.0881546, "address": "Nagpur, Maharashtra, India"}, {"latitude": 21.2786567, "longitude": 81.8661442, "address": "Chhattisgarh, India"}, {"latitude": 21.2786567, "longitude": 81.8661442, "address": "Chhattisgarh, India"}, {"latitude": 22.6054858, "longitude": 77.75354399999999, "address": "Itarsi, Madhya Pradesh, India"}, {"latitude": 21.2513844, "longitude": 81.62964130000002, "address": "Raipur, Chhattisgarh, India"}, {"latitude": 20.7, "longitude": 77, "address": "Akola, Maharashtra, India"}, {"latitude": 19.9974533, "longitude": 73.78980229999999, "address": "Nashik, Maharashtra, India"}, {"latitude": 19.0759837, "longitude": 72.8776559, "address": "Mumbai, Maharashtra, India"}, {"latitude": 19.0759837, "longitude": 72.8776559, "address": "Mumbai, Maharashtra, India"}, {"latitude": 21.1458004, "longitude": 79.0881546, "address": "Nagpur, Maharashtra, India"}, {"latitude": 21.2786567, "longitude": 81.8661442, "address": "Chhattisgarh, India"}, {"latitude": 21.2786567, "longitude": 81.8661442, "address": "Chhattisgarh, India"}, {"latitude": 20.593684, "longitude": 78.96288, "address": "India"}, {"latitude": 21.1458004, "longitude": 79.0881546, "address": "Nagpur, Maharashtra, India"}, {"latitude": 21.2786567, "longitude": 81.8661442, "address": "Chhattisgarh, India"}, {"latitude": 19.9974533, "longitude": 73.78980229999999, "address": "Nashik, Maharashtra, India"}, {"latitude": 21.2786567, "longitude": 81.8661442, "address": "Chhattisgarh, India"}, {"latitude": 21.1458004, "longitude": 79.0881546, "address": "Nagpur, Maharashtra, India"}, {"latitude": 21.1458004, "longitude": 79.0881546, "address": "Nagpur, Maharashtra, India"}, {"latitude": 19.9974533, "longitude": 73.78980229999999, "address": "Nashik, Maharashtra, India"}, {"latitude": 20.593684, "longitude": 78.96288, "address": "India"}, {"latitude": 28.635308, "longitude": 77.22496, "address": "New Delhi, Delhi, India"}, {"latitude": 21.2786567, "longitude": 81.8661442, "address": "Chhattisgarh, India"}, {"latitude": 21.1458004, "longitude": 79.0881546, "address": "Nagpur, Maharashtra, India"}, {"latitude": 19.0759837, "longitude": 72.8776559, "address": "Mumbai, Maharashtra, India"}, {"latitude": 20.7, "longitude": 77, "address": "Akola, Maharashtra, India"}, {"latitude": 19.9974533, "longitude": 73.78980229999999, "address": "Nashik, Maharashtra, India"}, {"latitude": 21.1458004, "longitude": 79.0881546, "address": "Nagpur, Maharashtra, India"}, {"latitude": 21.1458004, "longitude": 79.0881546, "address": "Nagpur, Maharashtra, India"}, {"latitude": 21.812876, "longitude": 80.18382930000001, "address": "Balaghat, Madhya Pradesh, India"}, {"latitude": 21.2513844, "longitude": 81.62964130000002, "address": "Raipur, Chhattisgarh, India"}, {"latitude": 21.2513844, "longitude": 81.62964130000002, "address": "Raipur, Chhattisgarh, India"}, {"latitude": 21.19, "longitude": 81.28, "address": "Durg, Chhattisgarh, India"}, {"latitude": 19.9974533, "longitude": 73.78980229999999, "address": "Nashik, Maharashtra, India"}, {"latitude": 21.2786567, "longitude": 81.8661442, "address": "Chhattisgarh, India"}, {"latitude": 21.2786567, "longitude": 81.8661442, "address": "Chhattisgarh, India"}, {"latitude": 21.2786567, "longitude": 81.8661442, "address": "Chhattisgarh, India"}, {"latitude": 21.2786567, "longitude": 81.8661442, "address": "Chhattisgarh, India"}, {"latitude": 21.2786567, "longitude": 81.8661442, "address": "Chhattisgarh, India"}, {"latitude": 21.2786567, "longitude": 81.8661442, "address": "Chhattisgarh, India"}, {"latitude": 21.2786567, "longitude": 81.8661442, "address": "Chhattisgarh, India"}, {"latitude": 21.2786567, "longitude": 81.8661442, "address": "Chhattisgarh, India"}, {"latitude": 21.2786567, "longitude": 81.8661442, "address": "Chhattisgarh, India"}, {"latitude": 19.9974533, "longitude": 73.78980229999999, "address": "Nashik, Maharashtra, India"}, {"latitude": 21.1458004, "longitude": 79.0881546, "address": "Nagpur, Maharashtra, India"}, {"latitude": 19.9974533, "longitude": 73.78980229999999, "address": "Nashik, Maharashtra, India"}, {"latitude": 21.1458004, "longitude": 79.0881546, "address": "Nagpur, Maharashtra, India"}, {"latitude": 21.1458004, "longitude": 79.0881546, "address": "Nagpur, Maharashtra, India"}, {"latitude": 26.2647757, "longitude": 82.07270609999999, "address": "Sultanpur, Uttar Pradesh, India"}, {"latitude": 21.1458004, "longitude": 79.0881546, "address": "Nagpur, Maharashtra, India"}, {"latitude": 21.1458004, "longitude": 79.0881546, "address": "Nagpur, Maharashtra, India"}, {"latitude": 21.1458004, "longitude": 79.0881546, "address": "Nagpur, Maharashtra, India"}, {"latitude": 21.1458004, "longitude": 79.0881546, "address": "Nagpur, Maharashtra, India"}, {"latitude": 21.2513844, "longitude": 81.62964130000002, "address": "Raipur, Chhattisgarh, India"}, {"latitude": 21.2513844, "longitude": 81.62964130000002, "address": "Raipur, Chhattisgarh, India"}, {"latitude": 19.9974533, "longitude": 73.78980229999999, "address": "Nashik, Maharashtra, India"}, {"latitude": 21.2513844, "longitude": 81.62964130000002, "address": "Raipur, Chhattisgarh, India"}, {"latitude": 22.6054858, "longitude": 77.75354399999999, "address": "Itarsi, Madhya Pradesh, India"}, {"latitude": 21.1458004, "longitude": 79.0881546, "address": "Nagpur, Maharashtra, India"}, {"latitude": 28.0723841, "longitude": 75.82288989999999, "address": "Khetri Nagar, Rajasthan 333504, India"}, {"latitude": 21.1458004, "longitude": 79.0881546, "address": "Nagpur, Maharashtra, India"}, {"latitude": 21.1458004, "longitude": 79.0881546, "address": "Nagpur, Maharashtra, India"}, {"latitude": 21.1468454, "longitude": 79.0611062, "address": "Amravati Road, Nagpur, Maharashtra, India"}, {"latitude": 21.1468454, "longitude": 79.0611062, "address": "Amravati Road, Nagpur, Maharashtra, India"}, {"latitude": 21.2786567, "longitude": 81.8661442, "address": "Chhattisgarh, India"}, {"latitude": 21.2786567, "longitude": 81.8661442, "address": "Chhattisgarh, India"}, {"latitude": 21.2786567, "longitude": 81.8661442, "address": "Chhattisgarh, India"}, {"latitude": 21.2786567, "longitude": 81.8661442, "address": "Chhattisgarh, India"}, {"latitude": 21.2786567, "longitude": 81.8661442, "address": "Chhattisgarh, India"}, {"latitude": 21.2786567, "longitude": 81.8661442, "address": "Chhattisgarh, India"}, {"latitude": 21.2786567, "longitude": 81.8661442, "address": "Chhattisgarh, India"}, {"latitude": 21.2786567, "longitude": 81.8661442, "address": "Chhattisgarh, India"}, {"latitude": 21.2786567, "longitude": 81.8661442, "address": "Chhattisgarh, India"}, {"latitude": 21.2786567, "longitude": 81.8661442, "address": "Chhattisgarh, India"}, {"latitude": 21.2786567, "longitude": 81.8661442, "address": "Chhattisgarh, India"}, {"latitude": 21.2513844, "longitude": 81.62964130000002, "address": "Raipur, Chhattisgarh, India"}, {"latitude": 21.2513844, "longitude": 81.62964130000002, "address": "Raipur, Chhattisgarh, India"}, {"latitude": 21.1458004, "longitude": 79.0881546, "address": "Nagpur, Maharashtra, India"}, {"latitude": 12.9715987, "longitude": 77.5945627, "address": "Bengaluru, Karnataka, India"}, {"latitude": 12.9715987, "longitude": 77.5945627, "address": "Bengaluru, Karnataka, India"}, {"latitude": 21.2513844, "longitude": 81.62964130000002, "address": "Raipur, Chhattisgarh, India"}, {"latitude": 21.1458004, "longitude": 79.0881546, "address": "Nagpur, Maharashtra, India"}, {"latitude": 12.9715987, "longitude": 77.5945627, "address": "Bengaluru, Karnataka, India"}, {"latitude": 21.1458004, "longitude": 79.0881546, "address": "Nagpur, Maharashtra, India"}, {"latitude": 21.2513844, "longitude": 81.62964130000002, "address": "Raipur, Chhattisgarh, India"}, {"latitude": 19.9974533, "longitude": 73.78980229999999, "address": "Nashik, Maharashtra, India"}, {"latitude": 21.1458004, "longitude": 79.0881546, "address": "Nagpur, Maharashtra, India"}, {"latitude": 21.1458004, "longitude": 79.0881546, "address": "Nagpur, Maharashtra, India"}, {"latitude": 21.2513844, "longitude": 81.62964130000002, "address": "Raipur, Chhattisgarh, India"}, {"latitude": 21.1458004, "longitude": 79.0881546, "address": "Nagpur, Maharashtra, India"}, {"latitude": 19.9974533, "longitude": 73.78980229999999, "address": "Nashik, Maharashtra, India"}, {"latitude": 21.1458004, "longitude": 79.0881546, "address": "Nagpur, Maharashtra, India"}, {"latitude": 21.1458004, "longitude": 79.0881546, "address": "Nagpur, Maharashtra, India"}, {"latitude": 19.9974533, "longitude": 73.78980229999999, "address": "Nashik, Maharashtra, India"}, {"latitude": 16.7375089, "longitude": 78.0081221, "address": "Mahbubnagar, Telangana, India"}, {"latitude": 21.1458004, "longitude": 79.0881546, "address": "Nagpur, Maharashtra, India"}, {"latitude": 19.9974533, "longitude": 73.78980229999999, "address": "Nashik, Maharashtra, India"}, {"latitude": 19.9974533, "longitude": 73.78980229999999, "address": "Nashik, Maharashtra, India"}, {"latitude": 21.17, "longitude": 79.64999999999999, "address": "Bhandara, Maharashtra, India"}, {"latitude": 21.1458004, "longitude": 79.0881546, "address": "Nagpur, Maharashtra, India"}, {"latitude": 22.8045665, "longitude": 86.2028754, "address": "Jamshedpur, Jharkhand, India"}, {"latitude": 21.2786567, "longitude": 81.8661442, "address": "Chhattisgarh, India"}, {"latitude": 21.2786567, "longitude": 81.8661442, "address": "Chhattisgarh, India"}, {"latitude": 21.2786567, "longitude": 81.8661442, "address": "Chhattisgarh, India"}, {"latitude": 21.2786567, "longitude": 81.8661442, "address": "Chhattisgarh, India"}, {"latitude": 21.2786567, "longitude": 81.8661442, "address": "Chhattisgarh, India"}, {"latitude": 21.2513844, "longitude": 81.62964130000002, "address": "Raipur, Chhattisgarh, India"}, {"latitude": 21.1458004, "longitude": 79.0881546, "address": "Nagpur, Maharashtra, India"}, {"latitude": 21.1458004, "longitude": 79.0881546, "address": "Nagpur, Maharashtra, India"}, {"latitude": 20.7, "longitude": 77, "address": "Akola, Maharashtra, India"}, {"latitude": 21.2786567, "longitude": 81.8661442, "address": "Chhattisgarh, India"}, {"latitude": 21.2786567, "longitude": 81.8661442, "address": "Chhattisgarh, India"}, {"latitude": 21.1458004, "longitude": 79.0881546, "address": "Nagpur, Maharashtra, India"}, {"latitude": 20.3887937, "longitude": 78.1204073, "address": "Yavatmal, Maharashtra, India"}, {"latitude": 21.19, "longitude": 81.28, "address": "Durg, Chhattisgarh, India"}, {"latitude": 21.1458004, "longitude": 79.0881546, "address": "Nagpur, Maharashtra, India"}, {"latitude": 21.19, "longitude": 81.28, "address": "Durg, Chhattisgarh, India"}, {"latitude": 21.19, "longitude": 81.28, "address": "Durg, Chhattisgarh, India"}, {"latitude": 19.9974533, "longitude": 73.78980229999999, "address": "Nashik, Maharashtra, India"}, {"latitude": 21.2513844, "longitude": 81.62964130000002, "address": "Raipur, Chhattisgarh, India"}, {"latitude": 19.2609958, "longitude": 76.77666500000001, "address": "Parbhani, Maharashtra, India"}, {"latitude": 18.5204303, "longitude": 73.8567437, "address": "Pune, Maharashtra, India"}, {"latitude": 21.1458004, "longitude": 79.0881546, "address": "Nagpur, Maharashtra, India"}, {"latitude": 21.17, "longitude": 79.64999999999999, "address": "Bhandara, Maharashtra, India"}, {"latitude": 19.9974533, "longitude": 73.78980229999999, "address": "Nashik, Maharashtra, India"}, {"latitude": 21.1458004, "longitude": 79.0881546, "address": "Nagpur, Maharashtra, India"}, {"latitude": 21.1458004, "longitude": 79.0881546, "address": "Nagpur, Maharashtra, India"}, {"latitude": 19.2609958, "longitude": 76.77666500000001, "address": "Parbhani, Maharashtra, India"}, {"latitude": 19.2609958, "longitude": 76.77666500000001, "address": "Parbhani, Maharashtra, India"}, {"latitude": 21.2513844, "longitude": 81.62964130000002, "address": "Raipur, Chhattisgarh, India"}, {"latitude": 21.2513844, "longitude": 81.62964130000002, "address": "Raipur, Chhattisgarh, India"}, {"latitude": 21.17, "longitude": 79.64999999999999, "address": "Bhandara, Maharashtra, India"}, {"latitude": 21.2513844, "longitude": 81.62964130000002, "address": "Raipur, Chhattisgarh, India"}, {"latitude": 19.9974533, "longitude": 73.78980229999999, "address": "Nashik, Maharashtra, India"}, {"latitude": 19.9974533, "longitude": 73.78980229999999, "address": "Nashik, Maharashtra, India"}, {"latitude": 21.1458004, "longitude": 79.0881546, "address": "Nagpur, Maharashtra, India"}, {"latitude": 21.1458004, "longitude": 79.0881546, "address": "Nagpur, Maharashtra, India"}, {"latitude": 21.1458004, "longitude": 79.0881546, "address": "Nagpur, Maharashtra, India"}, {"latitude": 19.9974533, "longitude": 73.78980229999999, "address": "Nashik, Maharashtra, India"}, {"latitude": 19.9974533, "longitude": 73.78980229999999, "address": "Nashik, Maharashtra, India"}, {"latitude": 21.1458004, "longitude": 79.0881546, "address": "Nagpur, Maharashtra, India"}, {"latitude": 21.2786567, "longitude": 81.8661442, "address": "Chhattisgarh, India"}, {"latitude": 21.2786567, "longitude": 81.8661442, "address": "Chhattisgarh, India"}, {"latitude": 22.6054858, "longitude": 77.75354399999999, "address": "Itarsi, Madhya Pradesh, India"}, {"latitude": 21.2513844, "longitude": 81.62964130000002, "address": "Raipur, Chhattisgarh, India"}, {"latitude": 20.7, "longitude": 77, "address": "Akola, Maharashtra, India"}, {"latitude": 22.057437, "longitude": 78.9381729, "address": "Chhindwara, Madhya Pradesh 480001, India"}, {"latitude": 19.2609958, "longitude": 76.77666500000001, "address": "Parbhani, Maharashtra, India"}, {"latitude": 20.593684, "longitude": 78.96288, "address": "India"}, {"latitude": 21.2513844, "longitude": 81.62964130000002, "address": "Raipur, Chhattisgarh, India"}, {"latitude": 21.1458004, "longitude": 79.0881546, "address": "Nagpur, Maharashtra, India"}, {"latitude": 21.1458004, "longitude": 79.0881546, "address": "Nagpur, Maharashtra, India"}, {"latitude": 21.1458004, "longitude": 79.0881546, "address": "Nagpur, Maharashtra, India"}, {"latitude": 19.0759837, "longitude": 72.8776559, "address": "Mumbai, Maharashtra, India"}, {"latitude": 19.9974533, "longitude": 73.78980229999999, "address": "Nashik, Maharashtra, India"}, {"latitude": 22.6054858, "longitude": 77.75354399999999, "address": "Itarsi, Madhya Pradesh, India"}, {"latitude": 19.2609958, "longitude": 76.77666500000001, "address": "Parbhani, Maharashtra, India"}, {"latitude": 19.0759837, "longitude": 72.8776559, "address": "Mumbai, Maharashtra, India"}, {"latitude": 21.1458004, "longitude": 79.0881546, "address": "Nagpur, Maharashtra, India"}, {"latitude": 21.1458004, "longitude": 79.0881546, "address": "Nagpur, Maharashtra, India"}, {"latitude": 21.2786567, "longitude": 81.8661442, "address": "Chhattisgarh, India"}, {"latitude": 19.9974533, "longitude": 73.78980229999999, "address": "Nashik, Maharashtra, India"}, {"latitude": 19.0759837, "longitude": 72.8776559, "address": "Mumbai, Maharashtra, India"}, {"latitude": 19.0759837, "longitude": 72.8776559, "address": "Mumbai, Maharashtra, India"}, {"latitude": 21.1458004, "longitude": 79.0881546, "address": "Nagpur, Maharashtra, India"}, {"latitude": 21.1458004, "longitude": 79.0881546, "address": "Nagpur, Maharashtra, India"}, {"latitude": 21.1458004, "longitude": 79.0881546, "address": "Nagpur, Maharashtra, India"}, {"latitude": 21.1458004, "longitude": 79.0881546, "address": "Nagpur, Maharashtra, India"}, {"latitude": 19.9974533, "longitude": 73.78980229999999, "address": "Nashik, Maharashtra, India"}, {"latitude": 19.9974533, "longitude": 73.78980229999999, "address": "Nashik, Maharashtra, India"}, {"latitude": 21.1458004, "longitude": 79.0881546, "address": "Nagpur, Maharashtra, India"}, {"latitude": 21.2786567, "longitude": 81.8661442, "address": "Chhattisgarh, India"}, {"latitude": 21.2786567, "longitude": 81.8661442, "address": "Chhattisgarh, India"}, {"latitude": 22.6054858, "longitude": 77.75354399999999, "address": "Itarsi, Madhya Pradesh, India"}, {"latitude": 21.2513844, "longitude": 81.62964130000002, "address": "Raipur, Chhattisgarh, India"}, {"latitude": 20.7, "longitude": 77, "address": "Akola, Maharashtra, India"}, {"latitude": 22.057437, "longitude": 78.9381729, "address": "Chhindwara, Madhya Pradesh 480001, India"}, {"latitude": 19.2609958, "longitude": 76.77666500000001, "address": "Parbhani, Maharashtra, India"}, {"latitude": 20.593684, "longitude": 78.96288, "address": "India"}, {"latitude": 21.2513844, "longitude": 81.62964130000002, "address": "Raipur, Chhattisgarh, India"}, {"latitude": 21.1458004, "longitude": 79.0881546, "address": "Nagpur, Maharashtra, India"}, {"latitude": 21.1458004, "longitude": 79.0881546, "address": "Nagpur, Maharashtra, India"}, {"latitude": 21.1458004, "longitude": 79.0881546, "address": "Nagpur, Maharashtra, India"}, {"latitude": 19.0759837, "longitude": 72.8776559, "address": "Mumbai, Maharashtra, India"}, {"latitude": 19.9974533, "longitude": 73.78980229999999, "address": "Nashik, Maharashtra, India"}, {"latitude": 22.6054858, "longitude": 77.75354399999999, "address": "Itarsi, Madhya Pradesh, India"}, {"latitude": 19.2609958, "longitude": 76.77666500000001, "address": "Parbhani, Maharashtra, India"}, {"latitude": 19.0759837, "longitude": 72.8776559, "address": "Mumbai, Maharashtra, India"}, {"latitude": 21.1458004, "longitude": 79.0881546, "address": "Nagpur, Maharashtra, India"}, {"latitude": 21.1458004, "longitude": 79.0881546, "address": "Nagpur, Maharashtra, India"}, {"latitude": 21.2786567, "longitude": 81.8661442, "address": "Chhattisgarh, India"}, {"latitude": 19.9974533, "longitude": 73.78980229999999, "address": "Nashik, Maharashtra, India"}, {"latitude": 19.0759837, "longitude": 72.8776559, "address": "Mumbai, Maharashtra, India"}, {"latitude": 19.0759837, "longitude": 72.8776559, "address": "Mumbai, Maharashtra, India"}, {"latitude": 21.1458004, "longitude": 79.0881546, "address": "Nagpur, Maharashtra, India"}, {"latitude": 21.2786567, "longitude": 81.8661442, "address": "Chhattisgarh, India"}, {"latitude": 21.2786567, "longitude": 81.8661442, "address": "Chhattisgarh, India"}, {"latitude": 20.593684, "longitude": 78.96288, "address": "India"}, {"latitude": 21.1458004, "longitude": 79.0881546, "address": "Nagpur, Maharashtra, India"}, {"latitude": 21.2786567, "longitude": 81.8661442, "address": "Chhattisgarh, India"}, {"latitude": 19.9974533, "longitude": 73.78980229999999, "address": "Nashik, Maharashtra, India"}, {"latitude": 21.2786567, "longitude": 81.8661442, "address": "Chhattisgarh, India"}, {"latitude": 21.1458004, "longitude": 79.0881546, "address": "Nagpur, Maharashtra, India"}, {"latitude": 21.1458004, "longitude": 79.0881546, "address": "Nagpur, Maharashtra, India"}, {"latitude": 19.9974533, "longitude": 73.78980229999999, "address": "Nashik, Maharashtra, India"}, {"latitude": 20.593684, "longitude": 78.96288, "address": "India"}, {"latitude": 28.635308, "longitude": 77.22496, "address": "New Delhi, Delhi, India"}, {"latitude": 21.2786567, "longitude": 81.8661442, "address": "Chhattisgarh, India"}, {"latitude": 21.1458004, "longitude": 79.0881546, "address": "Nagpur, Maharashtra, India"}, {"latitude": 19.0759837, "longitude": 72.8776559, "address": "Mumbai, Maharashtra, India"}, {"latitude": 20.7, "longitude": 77, "address": "Akola, Maharashtra, India"}, {"latitude": 19.9974533, "longitude": 73.78980229999999, "address": "Nashik, Maharashtra, India"}, {"latitude": 21.1458004, "longitude": 79.0881546, "address": "Nagpur, Maharashtra, India"}, {"latitude": 21.1458004, "longitude": 79.0881546, "address": "Nagpur, Maharashtra, India"}, {"latitude": 21.812876, "longitude": 80.18382930000001, "address": "Balaghat, Madhya Pradesh, India"}, {"latitude": 21.2513844, "longitude": 81.62964130000002, "address": "Raipur, Chhattisgarh, India"}, {"latitude": 21.2513844, "longitude": 81.62964130000002, "address": "Raipur, Chhattisgarh, India"}, {"latitude": 21.19, "longitude": 81.28, "address": "Durg, Chhattisgarh, India"}, {"latitude": 19.9974533, "longitude": 73.78980229999999, "address": "Nashik, Maharashtra, India"}, {"latitude": 21.2786567, "longitude": 81.8661442, "address": "Chhattisgarh, India"}, {"latitude": 21.2786567, "longitude": 81.8661442, "address": "Chhattisgarh, India"}, {"latitude": 21.2786567, "longitude": 81.8661442, "address": "Chhattisgarh, India"}, {"latitude": 21.2786567, "longitude": 81.8661442, "address": "Chhattisgarh, India"}, {"latitude": 21.2786567, "longitude": 81.8661442, "address": "Chhattisgarh, India"}, {"latitude": 21.2786567, "longitude": 81.8661442, "address": "Chhattisgarh, India"}, {"latitude": 21.2786567, "longitude": 81.8661442, "address": "Chhattisgarh, India"}, {"latitude": 21.2786567, "longitude": 81.8661442, "address": "Chhattisgarh, India"}, {"latitude": 21.2786567, "longitude": 81.8661442, "address": "Chhattisgarh, India"}, {"latitude": 19.9974533, "longitude": 73.78980229999999, "address": "Nashik, Maharashtra, India"}, {"latitude": 21.1458004, "longitude": 79.0881546, "address": "Nagpur, Maharashtra, India"}, {"latitude": 19.9974533, "longitude": 73.78980229999999, "address": "Nashik, Maharashtra, India"}, {"latitude": 21.1458004, "longitude": 79.0881546, "address": "Nagpur, Maharashtra, India"}, {"latitude": 21.1458004, "longitude": 79.0881546, "address": "Nagpur, Maharashtra, India"}, {"latitude": 26.2647757, "longitude": 82.07270609999999, "address": "Sultanpur, Uttar Pradesh, India"}, {"latitude": 21.1458004, "longitude": 79.0881546, "address": "Nagpur, Maharashtra, India"}, {"latitude": 21.1458004, "longitude": 79.0881546, "address": "Nagpur, Maharashtra, India"}, {"latitude": 21.1458004, "longitude": 79.0881546, "address": "Nagpur, Maharashtra, India"}, {"latitude": 21.1458004, "longitude": 79.0881546, "address": "Nagpur, Maharashtra, India"}, {"latitude": 21.2513844, "longitude": 81.62964130000002, "address": "Raipur, Chhattisgarh, India"}, {"latitude": 21.1458004, "longitude": 79.0881546, "address": "Nagpur, Maharashtra, India"}, {"latitude": 19.0759837, "longitude": 72.8776559, "address": "Mumbai, Maharashtra, India"}, {"latitude": 19.9974533, "longitude": 73.78980229999999, "address": "Nashik, Maharashtra, India"}, {"latitude": 22.6054858, "longitude": 77.75354399999999, "address": "Itarsi, Madhya Pradesh, India"}, {"latitude": 19.2609958, "longitude": 76.77666500000001, "address": "Parbhani, Maharashtra, India"}, {"latitude": 19.0759837, "longitude": 72.8776559, "address": "Mumbai, Maharashtra, India"}, {"latitude": 21.1458004, "longitude": 79.0881546, "address": "Nagpur, Maharashtra, India"}, {"latitude": 21.1458004, "longitude": 79.0881546, "address": "Nagpur, Maharashtra, India"}, {"latitude": 21.2786567, "longitude": 81.8661442, "address": "Chhattisgarh, India"}, {"latitude": 19.9974533, "longitude": 73.78980229999999, "address": "Nashik, Maharashtra, India"}, {"latitude": 19.0759837, "longitude": 72.8776559, "address": "Mumbai, Maharashtra, India"}, {"latitude": 19.0759837, "longitude": 72.8776559, "address": "Mumbai, Maharashtra, India"}, {"latitude": 21.1458004, "longitude": 79.0881546, "address": "Nagpur, Maharashtra, India"}, {"latitude": 21.2786567, "longitude": 81.8661442, "address": "Chhattisgarh, India"}, {"latitude": 21.2786567, "longitude": 81.8661442, "address": "Chhattisgarh, India"}, {"latitude": 20.593684, "longitude": 78.96288, "address": "India"}, {"latitude": 21.1458004, "longitude": 79.0881546, "address": "Nagpur, Maharashtra, India"}, {"latitude": 21.2786567, "longitude": 81.8661442, "address": "Chhattisgarh, India"}, {"latitude": 19.9974533, "longitude": 73.78980229999999, "address": "Nashik, Maharashtra, India"}, {"latitude": 21.2786567, "longitude": 81.8661442, "address": "Chhattisgarh, India"}, {"latitude": 21.1458004, "longitude": 79.0881546, "address": "Nagpur, Maharashtra, India"}, {"latitude": 21.1458004, "longitude": 79.0881546, "address": "Nagpur, Maharashtra, India"}, {"latitude": 19.9974533, "longitude": 73.78980229999999, "address": "Nashik, Maharashtra, India"}, {"latitude": 20.593684, "longitude": 78.96288, "address": "India"}, {"latitude": 28.635308, "longitude": 77.22496, "address": "New Delhi, Delhi, India"}, {"latitude": 21.2786567, "longitude": 81.8661442, "address": "Chhattisgarh, India"}, {"latitude": 21.1458004, "longitude": 79.0881546, "address": "Nagpur, Maharashtra, India"}, {"latitude": 19.0759837, "longitude": 72.8776559, "address": "Mumbai, Maharashtra, India"}, {"latitude": 20.7, "longitude": 77, "address": "Akola, Maharashtra, India"}, {"latitude": 19.9974533, "longitude": 73.78980229999999, "address": "Nashik, Maharashtra, India"}, {"latitude": 21.1458004, "longitude": 79.0881546, "address": "Nagpur, Maharashtra, India"}, {"latitude": 21.1458004, "longitude": 79.0881546, "address": "Nagpur, Maharashtra, India"}, {"latitude": 21.812876, "longitude": 80.18382930000001, "address": "Balaghat, Madhya Pradesh, India"}, {"latitude": 21.2513844, "longitude": 81.62964130000002, "address": "Raipur, Chhattisgarh, India"}, {"latitude": 21.2513844, "longitude": 81.62964130000002, "address": "Raipur, Chhattisgarh, India"}, {"latitude": 21.19, "longitude": 81.28, "address": "Durg, Chhattisgarh, India"}, {"latitude": 19.9974533, "longitude": 73.78980229999999, "address": "Nashik, Maharashtra, India"}, {"latitude": 21.2786567, "longitude": 81.8661442, "address": "Chhattisgarh, India"}, {"latitude": 21.2786567, "longitude": 81.8661442, "address": "Chhattisgarh, India"}, {"latitude": 21.2786567, "longitude": 81.8661442, "address": "Chhattisgarh, India"}, {"latitude": 21.2786567, "longitude": 81.8661442, "address": "Chhattisgarh, India"}, {"latitude": 21.2786567, "longitude": 81.8661442, "address": "Chhattisgarh, India"}, {"latitude": 21.2786567, "longitude": 81.8661442, "address": "Chhattisgarh, India"}, {"latitude": 21.2786567, "longitude": 81.8661442, "address": "Chhattisgarh, India"}, {"latitude": 21.2786567, "longitude": 81.8661442, "address": "Chhattisgarh, India"}, {"latitude": 21.2786567, "longitude": 81.8661442, "address": "Chhattisgarh, India"}, {"latitude": 19.9974533, "longitude": 73.78980229999999, "address": "Nashik, Maharashtra, India"}, {"latitude": 21.1458004, "longitude": 79.0881546, "address": "Nagpur, Maharashtra, India"}, {"latitude": 19.9974533, "longitude": 73.78980229999999, "address": "Nashik, Maharashtra, India"}, {"latitude": 21.1458004, "longitude": 79.0881546, "address": "Nagpur, Maharashtra, India"}, {"latitude": 21.1458004, "longitude": 79.0881546, "address": "Nagpur, Maharashtra, India"}, {"latitude": 26.2647757, "longitude": 82.07270609999999, "address": "Sultanpur, Uttar Pradesh, India"}, {"latitude": 21.1458004, "longitude": 79.0881546, "address": "Nagpur, Maharashtra, India"}, {"latitude": 21.1458004, "longitude": 79.0881546, "address": "Nagpur, Maharashtra, India"}, {"latitude": 21.1458004, "longitude": 79.0881546, "address": "Nagpur, Maharashtra, India"}, {"latitude": 21.1458004, "longitude": 79.0881546, "address": "Nagpur, Maharashtra, India"}, {"latitude": 21.2513844, "longitude": 81.62964130000002, "address": "Raipur, Chhattisgarh, India"}, {"latitude": 21.2513844, "longitude": 81.62964130000002, "address": "Raipur, Chhattisgarh, India"}, {"latitude": 19.9974533, "longitude": 73.78980229999999, "address": "Nashik, Maharashtra, India"}, {"latitude": 21.2513844, "longitude": 81.62964130000002, "address": "Raipur, Chhattisgarh, India"}, {"latitude": 22.6054858, "longitude": 77.75354399999999, "address": "Itarsi, Madhya Pradesh, India"}, {"latitude": 21.1458004, "longitude": 79.0881546, "address": "Nagpur, Maharashtra, India"}, {"latitude": 28.0723841, "longitude": 75.82288989999999, "address": "Khetri Nagar, Rajasthan 333504, India"}, {"latitude": 21.1458004, "longitude": 79.0881546, "address": "Nagpur, Maharashtra, India"}, {"latitude": 21.1458004, "longitude": 79.0881546, "address": "Nagpur, Maharashtra, India"}, {"latitude": 21.1468454, "longitude": 79.0611062, "address": "Amravati Road, Nagpur, Maharashtra, India"}, {"latitude": 21.1468454, "longitude": 79.0611062, "address": "Amravati Road, Nagpur, Maharashtra, India"}, {"latitude": 21.2786567, "longitude": 81.8661442, "address": "Chhattisgarh, India"}, {"latitude": 21.2786567, "longitude": 81.8661442, "address": "Chhattisgarh, India"}, {"latitude": 21.2786567, "longitude": 81.8661442, "address": "Chhattisgarh, India"}, {"latitude": 21.2786567, "longitude": 81.8661442, "address": "Chhattisgarh, India"}, {"latitude": 21.2786567, "longitude": 81.8661442, "address": "Chhattisgarh, India"}, {"latitude": 21.2786567, "longitude": 81.8661442, "address": "Chhattisgarh, India"}, {"latitude": 21.2786567, "longitude": 81.8661442, "address": "Chhattisgarh, India"}, {"latitude": 21.2786567, "longitude": 81.8661442, "address": "Chhattisgarh, India"}, {"latitude": 21.2786567, "longitude": 81.8661442, "address": "Chhattisgarh, India"}, {"latitude": 21.2786567, "longitude": 81.8661442, "address": "Chhattisgarh, India"}, {"latitude": 21.2786567, "longitude": 81.8661442, "address": "Chhattisgarh, India"}, {"latitude": 21.1458004, "longitude": 79.0881546, "address": "Nagpur, Maharashtra, India"}, {"latitude": 21.1458004, "longitude": 79.0881546, "address": "Nagpur, Maharashtra, India"}, {"latitude": 21.1458004, "longitude": 79.0881546, "address": "Nagpur, Maharashtra, India"}, {"latitude": 19.0759837, "longitude": 72.8776559, "address": "Mumbai, Maharashtra, India"}, {"latitude": 19.9974533, "longitude": 73.78980229999999, "address": "Nashik, Maharashtra, India"}, {"latitude": 22.6054858, "longitude": 77.75354399999999, "address": "Itarsi, Madhya Pradesh, India"}, {"latitude": 19.2609958, "longitude": 76.77666500000001, "address": "Parbhani, Maharashtra, India"}, {"latitude": 19.0759837, "longitude": 72.8776559, "address": "Mumbai, Maharashtra, India"}, {"latitude": 21.1458004, "longitude": 79.0881546, "address": "Nagpur, Maharashtra, India"}, {"latitude": 21.1458004, "longitude": 79.0881546, "address": "Nagpur, Maharashtra, India"}, {"latitude": 21.2786567, "longitude": 81.8661442, "address": "Chhattisgarh, India"}, {"latitude": 19.9974533, "longitude": 73.78980229999999, "address": "Nashik, Maharashtra, India"}, {"latitude": 19.0759837, "longitude": 72.8776559, "address": "Mumbai, Maharashtra, India"}, {"latitude": 19.0759837, "longitude": 72.8776559, "address": "Mumbai, Maharashtra, India"}, {"latitude": 21.1458004, "longitude": 79.0881546, "address": "Nagpur, Maharashtra, India"}, {"latitude": 21.2786567, "longitude": 81.8661442, "address": "Chhattisgarh, India"}, {"latitude": 21.2786567, "longitude": 81.8661442, "address": "Chhattisgarh, India"}, {"latitude": 20.593684, "longitude": 78.96288, "address": "India"}, {"latitude": 21.1458004, "longitude": 79.0881546, "address": "Nagpur, Maharashtra, India"}, {"latitude": 21.2786567, "longitude": 81.8661442, "address": "Chhattisgarh, India"}, {"latitude": 19.9974533, "longitude": 73.78980229999999, "address": "Nashik, Maharashtra, India"}, {"latitude": 21.2786567, "longitude": 81.8661442, "address": "Chhattisgarh, India"}, {"latitude": 21.1458004, "longitude": 79.0881546, "address": "Nagpur, Maharashtra, India"}, {"latitude": 21.1458004, "longitude": 79.0881546, "address": "Nagpur, Maharashtra, India"}, {"latitude": 19.9974533, "longitude": 73.78980229999999, "address": "Nashik, Maharashtra, India"}, {"latitude": 20.593684, "longitude": 78.96288, "address": "India"}, {"latitude": 28.635308, "longitude": 77.22496, "address": "New Delhi, Delhi, India"}, {"latitude": 21.2786567, "longitude": 81.8661442, "address": "Chhattisgarh, India"}, {"latitude": 21.1458004, "longitude": 79.0881546, "address": "Nagpur, Maharashtra, India"}, {"latitude": 19.0759837, "longitude": 72.8776559, "address": "Mumbai, Maharashtra, India"}, {"latitude": 20.7, "longitude": 77, "address": "Akola, Maharashtra, India"}, {"latitude": 19.9974533, "longitude": 73.78980229999999, "address": "Nashik, Maharashtra, India"}, {"latitude": 21.1458004, "longitude": 79.0881546, "address": "Nagpur, Maharashtra, India"}, {"latitude": 21.1458004, "longitude": 79.0881546, "address": "Nagpur, Maharashtra, India"}, {"latitude": 21.812876, "longitude": 80.18382930000001, "address": "Balaghat, Madhya Pradesh, India"}, {"latitude": 21.2513844, "longitude": 81.62964130000002, "address": "Raipur, Chhattisgarh, India"}, {"latitude": 21.2513844, "longitude": 81.62964130000002, "address": "Raipur, Chhattisgarh, India"}, {"latitude": 21.19, "longitude": 81.28, "address": "Durg, Chhattisgarh, India"}, {"latitude": 19.9974533, "longitude": 73.78980229999999, "address": "Nashik, Maharashtra, India"}, {"latitude": 21.2786567, "longitude": 81.8661442, "address": "Chhattisgarh, India"}, {"latitude": 21.2786567, "longitude": 81.8661442, "address": "Chhattisgarh, India"}, {"latitude": 21.2786567, "longitude": 81.8661442, "address": "Chhattisgarh, India"}, {"latitude": 21.2786567, "longitude": 81.8661442, "address": "Chhattisgarh, India"}, {"latitude": 21.2786567, "longitude": 81.8661442, "address": "Chhattisgarh, India"}, {"latitude": 21.2786567, "longitude": 81.8661442, "address": "Chhattisgarh, India"}, {"latitude": 21.2786567, "longitude": 81.8661442, "address": "Chhattisgarh, India"}, {"latitude": 21.2786567, "longitude": 81.8661442, "address": "Chhattisgarh, India"}, {"latitude": 21.2786567, "longitude": 81.8661442, "address": "Chhattisgarh, India"}, {"latitude": 19.9974533, "longitude": 73.78980229999999, "address": "Nashik, Maharashtra, India"}, {"latitude": 21.1458004, "longitude": 79.0881546, "address": "Nagpur, Maharashtra, India"}, {"latitude": 19.9974533, "longitude": 73.78980229999999, "address": "Nashik, Maharashtra, India"}, {"latitude": 21.1458004, "longitude": 79.0881546, "address": "Nagpur, Maharashtra, India"}, {"latitude": 21.1458004, "longitude": 79.0881546, "address": "Nagpur, Maharashtra, India"}, {"latitude": 26.2647757, "longitude": 82.07270609999999, "address": "Sultanpur, Uttar Pradesh, India"}, {"latitude": 21.1458004, "longitude": 79.0881546, "address": "Nagpur, Maharashtra, India"}, {"latitude": 21.1458004, "longitude": 79.0881546, "address": "Nagpur, Maharashtra, India"}, {"latitude": 21.1458004, "longitude": 79.0881546, "address": "Nagpur, Maharashtra, India"}, {"latitude": 21.1458004, "longitude": 79.0881546, "address": "Nagpur, Maharashtra, India"}, {"latitude": 21.2513844, "longitude": 81.62964130000002, "address": "Raipur, Chhattisgarh, India"}, {"latitude": 21.2513844, "longitude": 81.62964130000002, "address": "Raipur, Chhattisgarh, India"}, {"latitude": 19.9974533, "longitude": 73.78980229999999, "address": "Nashik, Maharashtra, India"}, {"latitude": 21.2513844, "longitude": 81.62964130000002, "address": "Raipur, Chhattisgarh, India"}, {"latitude": 22.6054858, "longitude": 77.75354399999999, "address": "Itarsi, Madhya Pradesh, India"}, {"latitude": 21.1458004, "longitude": 79.0881546, "address": "Nagpur, Maharashtra, India"}, {"latitude": 28.0723841, "longitude": 75.82288989999999, "address": "Khetri Nagar, Rajasthan 333504, India"}, {"latitude": 21.1458004, "longitude": 79.0881546, "address": "Nagpur, Maharashtra, India"}, {"latitude": 21.1458004, "longitude": 79.0881546, "address": "Nagpur, Maharashtra, India"}, {"latitude": 21.1468454, "longitude": 79.0611062, "address": "Amravati Road, Nagpur, Maharashtra, India"}, {"latitude": 21.1468454, "longitude": 79.0611062, "address": "Amravati Road, Nagpur, Maharashtra, India"}, {"latitude": 21.2786567, "longitude": 81.8661442, "address": "Chhattisgarh, India"}, {"latitude": 21.2786567, "longitude": 81.8661442, "address": "Chhattisgarh, India"}, {"latitude": 21.2786567, "longitude": 81.8661442, "address": "Chhattisgarh, India"}, {"latitude": 21.2786567, "longitude": 81.8661442, "address": "Chhattisgarh, India"}, {"latitude": 21.2786567, "longitude": 81.8661442, "address": "Chhattisgarh, India"}, {"latitude": 21.2786567, "longitude": 81.8661442, "address": "Chhattisgarh, India"}, {"latitude": 21.2786567, "longitude": 81.8661442, "address": "Chhattisgarh, India"}, {"latitude": 21.2786567, "longitude": 81.8661442, "address": "Chhattisgarh, India"}, {"latitude": 21.2786567, "longitude": 81.8661442, "address": "Chhattisgarh, India"}, {"latitude": 19.3, "longitude": 76.5, "address": "Manwath, Maharashtra 431505, India"}, {"latitude": 21.17, "longitude": 79.64999999999999, "address": "Bhandara, Maharashtra, India"}, {"latitude": 28.635308, "longitude": 77.22496, "address": "New Delhi, Delhi, India"}, {"latitude": 19.95, "longitude": 79.3, "address": "Chandrapur, Maharashtra, India"}, {"latitude": 21.2786567, "longitude": 81.8661442, "address": "Chhattisgarh, India"}, {"latitude": 21.2786567, "longitude": 81.8661442, "address": "Chhattisgarh, India"}, {"latitude": 21.2786567, "longitude": 81.8661442, "address": "Chhattisgarh, India"}, {"latitude": 21.2786567, "longitude": 81.8661442, "address": "Chhattisgarh, India"}, {"latitude": 21.1458004, "longitude": 79.0881546, "address": "Nagpur, Maharashtra, India"}, {"latitude": 21.1458004, "longitude": 79.0881546, "address": "Nagpur, Maharashtra, India"}, {"latitude": 21.1458004, "longitude": 79.0881546, "address": "Nagpur, Maharashtra, India"}, {"latitude": 21.2786567, "longitude": 81.8661442, "address": "Chhattisgarh, India"}, {"latitude": 26.9124336, "longitude": 75.7872709, "address": "Jaipur, Rajasthan, India"}, {"latitude": 21.1458004, "longitude": 79.0881546, "address": "Nagpur, Maharashtra, India"}, {"latitude": 21.1458004, "longitude": 79.0881546, "address": "Nagpur, Maharashtra, India"}, {"latitude": 21.1458004, "longitude": 79.0881546, "address": "Nagpur, Maharashtra, India"}, {"latitude": 21.2786567, "longitude": 81.8661442, "address": "Chhattisgarh, India"}, {"latitude": 28.635308, "longitude": 77.22496, "address": "New Delhi, Delhi, India"}, {"latitude": 21.2786567, "longitude": 81.8661442, "address": "Chhattisgarh, India"}, {"latitude": 21.2786567, "longitude": 81.8661442, "address": "Chhattisgarh, India"}, {"latitude": 19.8761653, "longitude": 75.3433139, "address": "Aurangabad, Maharashtra, India"}, {"latitude": 21.1458004, "longitude": 79.0881546, "address": "Nagpur, Maharashtra, India"}, {"latitude": 21.2786567, "longitude": 81.8661442, "address": "Chhattisgarh, India"}, {"latitude": 21.2786567, "longitude": 81.8661442, "address": "Chhattisgarh, India"}, {"latitude": 21.2786567, "longitude": 81.8661442, "address": "Chhattisgarh, India"}, {"latitude": 21.1458004, "longitude": 79.0881546, "address": "Nagpur, Maharashtra, India"}, {"latitude": 21.2786567, "longitude": 81.8661442, "address": "Chhattisgarh, India"}, {"latitude": 19.8761653, "longitude": 75.3433139, "address": "Aurangabad, Maharashtra, India"}, {"latitude": 21.2786567, "longitude": 81.8661442, "address": "Chhattisgarh, India"}, {"latitude": 21.2786567, "longitude": 81.8661442, "address": "Chhattisgarh, India"}, {"latitude": 21.2786567, "longitude": 81.8661442, "address": "Chhattisgarh, India"}, {"latitude": 21.2786567, "longitude": 81.8661442, "address": "Chhattisgarh, India"}, {"latitude": 21.1458004, "longitude": 79.0881546, "address": "Nagpur, Maharashtra, India"}, {"latitude": 21.2786567, "longitude": 81.8661442, "address": "Chhattisgarh, India"}, {"latitude": 19.9974533, "longitude": 73.78980229999999, "address": "Nashik, Maharashtra, India"}, {"latitude": 21.2513844, "longitude": 81.62964130000002, "address": "Raipur, Chhattisgarh, India"}, {"latitude": 21.2513844, "longitude": 81.62964130000002, "address": "Raipur, Chhattisgarh, India"}, {"latitude": 21.1458004, "longitude": 79.0881546, "address": "Nagpur, Maharashtra, India"}, {"latitude": 19.9974533, "longitude": 73.78980229999999, "address": "Nashik, Maharashtra, India"}, {"latitude": 21.1458004, "longitude": 79.0881546, "address": "Nagpur, Maharashtra, India"}, {"latitude": 21.1458004, "longitude": 79.0881546, "address": "Nagpur, Maharashtra, India"}, {"latitude": 19.9974533, "longitude": 73.78980229999999, "address": "Nashik, Maharashtra, India"}, {"latitude": 16.7375089, "longitude": 78.0081221, "address": "Mahbubnagar, Telangana, India"}, {"latitude": 21.1458004, "longitude": 79.0881546, "address": "Nagpur, Maharashtra, India"}, {"latitude": 19.9974533, "longitude": 73.78980229999999, "address": "Nashik, Maharashtra, India"}, {"latitude": 19.9974533, "longitude": 73.78980229999999, "address": "Nashik, Maharashtra, India"}, {"latitude": 21.17, "longitude": 79.64999999999999, "address": "Bhandara, Maharashtra, India"}, {"latitude": 21.1458004, "longitude": 79.0881546, "address": "Nagpur, Maharashtra, India"}, {"latitude": 22.8045665, "longitude": 86.2028754, "address": "Jamshedpur, Jharkhand, India"}, {"latitude": 21.2786567, "longitude": 81.8661442, "address": "Chhattisgarh, India"}, {"latitude": 21.2786567, "longitude": 81.8661442, "address": "Chhattisgarh, India"}, {"latitude": 21.2786567, "longitude": 81.8661442, "address": "Chhattisgarh, India"}, {"latitude": 21.2786567, "longitude": 81.8661442, "address": "Chhattisgarh, India"}, {"latitude": 21.2786567, "longitude": 81.8661442, "address": "Chhattisgarh, India"}, {"latitude": 21.2513844, "longitude": 81.62964130000002, "address": "Raipur, Chhattisgarh, India"}, {"latitude": 21.1458004, "longitude": 79.0881546, "address": "Nagpur, Maharashtra, India"}, {"latitude": 21.1458004, "longitude": 79.0881546, "address": "Nagpur, Maharashtra, India"}, {"latitude": 20.7, "longitude": 77, "address": "Akola, Maharashtra, India"}, {"latitude": 21.2786567, "longitude": 81.8661442, "address": "Chhattisgarh, India"}, {"latitude": 21.2786567, "longitude": 81.8661442, "address": "Chhattisgarh, India"}, {"latitude": 21.1458004, "longitude": 79.0881546, "address": "Nagpur, Maharashtra, India"}, {"latitude": 20.3887937, "longitude": 78.1204073, "address": "Yavatmal, Maharashtra, India"}, {"latitude": 21.19, "longitude": 81.28, "address": "Durg, Chhattisgarh, India"}, {"latitude": 21.1458004, "longitude": 79.0881546, "address": "Nagpur, Maharashtra, India"}, {"latitude": 21.19, "longitude": 81.28, "address": "Durg, Chhattisgarh, India"}, {"latitude": 21.19, "longitude": 81.28, "address": "Durg, Chhattisgarh, India"}, {"latitude": 19.9974533, "longitude": 73.78980229999999, "address": "Nashik, Maharashtra, India"}, {"latitude": 21.2513844, "longitude": 81.62964130000002, "address": "Raipur, Chhattisgarh, India"}, {"latitude": 19.2609958, "longitude": 76.77666500000001, "address": "Parbhani, Maharashtra, India"}, {"latitude": 18.5204303, "longitude": 73.8567437, "address": "Pune, Maharashtra, India"}, {"latitude": 21.1458004, "longitude": 79.0881546, "address": "Nagpur, Maharashtra, India"}, {"latitude": 21.17, "longitude": 79.64999999999999, "address": "Bhandara, Maharashtra, India"}, {"latitude": 19.9974533, "longitude": 73.78980229999999, "address": "Nashik, Maharashtra, India"}, {"latitude": 21.1458004, "longitude": 79.0881546, "address": "Nagpur, Maharashtra, India"}, {"latitude": 21.1458004, "longitude": 79.0881546, "address": "Nagpur, Maharashtra, India"}, {"latitude": 19.2609958, "longitude": 76.77666500000001, "address": "Parbhani, Maharashtra, India"}, {"latitude": 19.2609958, "longitude": 76.77666500000001, "address": "Parbhani, Maharashtra, India"}, {"latitude": 21.2513844, "longitude": 81.62964130000002, "address": "Raipur, Chhattisgarh, India"}, {"latitude": 21.2513844, "longitude": 81.62964130000002, "address": "Raipur, Chhattisgarh, India"}, {"latitude": 21.17, "longitude": 79.64999999999999, "address": "Bhandara, Maharashtra, India"}, {"latitude": 21.2513844, "longitude": 81.62964130000002, "address": "Raipur, Chhattisgarh, India"}, {"latitude": 19.9974533, "longitude": 73.78980229999999, "address": "Nashik, Maharashtra, India"}, {"latitude": 19.9974533, "longitude": 73.78980229999999, "address": "Nashik, Maharashtra, India"}, {"latitude": 21.1458004, "longitude": 79.0881546, "address": "Nagpur, Maharashtra, India"}, {"latitude": 21.1458004, "longitude": 79.0881546, "address": "Nagpur, Maharashtra, India"}, {"latitude": 21.1458004, "longitude": 79.0881546, "address": "Nagpur, Maharashtra, India"}, {"latitude": 21.1458004, "longitude": 79.0881546, "address": "Nagpur, Maharashtra, India"}, {"latitude": 19.2609958, "longitude": 76.77666500000001, "address": "Parbhani, Maharashtra, India"}, {"latitude": 19.2609958, "longitude": 76.77666500000001, "address": "Parbhani, Maharashtra, India"}, {"latitude": 21.2513844, "longitude": 81.62964130000002, "address": "Raipur, Chhattisgarh, India"}, {"latitude": 21.2513844, "longitude": 81.62964130000002, "address": "Raipur, Chhattisgarh, India"}, {"latitude": 21.17, "longitude": 79.64999999999999, "address": "Bhandara, Maharashtra, India"}, {"latitude": 21.2513844, "longitude": 81.62964130000002, "address": "Raipur, Chhattisgarh, India"}, {"latitude": 19.9974533, "longitude": 73.78980229999999, "address": "Nashik, Maharashtra, India"}, {"latitude": 19.9974533, "longitude": 73.78980229999999, "address": "Nashik, Maharashtra, India"}, {"latitude": 21.1458004, "longitude": 79.0881546, "address": "Nagpur, Maharashtra, India"}, {"latitude": 21.1458004, "longitude": 79.0881546, "address": "Nagpur, Maharashtra, India"}, {"latitude": 21.1458004, "longitude": 79.0881546, "address": "Nagpur, Maharashtra, India"}, {"latitude": 19.9974533, "longitude": 73.78980229999999, "address": "Nashik, Maharashtra, India"}, {"latitude": 19.9974533, "longitude": 73.78980229999999, "address": "Nashik, Maharashtra, India"}, {"latitude": 21.1458004, "longitude": 79.0881546, "address": "Nagpur, Maharashtra, India"}, {"latitude": 21.2786567, "longitude": 81.8661442, "address": "Chhattisgarh, India"}, {"latitude": 21.2786567, "longitude": 81.8661442, "address": "Chhattisgarh, India"}, {"latitude": 22.6054858, "longitude": 77.75354399999999, "address": "Itarsi, Madhya Pradesh, India"}, {"latitude": 21.2513844, "longitude": 81.62964130000002, "address": "Raipur, Chhattisgarh, India"}, {"latitude": 20.7, "longitude": 77, "address": "Akola, Maharashtra, India"}, {"latitude": 22.057437, "longitude": 78.9381729, "address": "Chhindwara, Madhya Pradesh 480001, India"}, {"latitude": 19.2609958, "longitude": 76.77666500000001, "address": "Parbhani, Maharashtra, India"}, {"latitude": 20.593684, "longitude": 78.96288, "address": "India"}, {"latitude": 21.2513844, "longitude": 81.62964130000002, "address": "Raipur, Chhattisgarh, India"}, {"latitude": 21.1458004, "longitude": 79.0881546, "address": "Nagpur, Maharashtra, India"}, {"latitude": 21.1458004, "longitude": 79.0881546, "address": "Nagpur, Maharashtra, India"}, {"latitude": 21.1458004, "longitude": 79.0881546, "address": "Nagpur, Maharashtra, India"}, {"latitude": 19.0759837, "longitude": 72.8776559, "address": "Mumbai, Maharashtra, India"}, {"latitude": 19.9974533, "longitude": 73.78980229999999, "address": "Nashik, Maharashtra, India"}, {"latitude": 22.6054858, "longitude": 77.75354399999999, "address": "Itarsi, Madhya Pradesh, India"}, {"latitude": 19.2609958, "longitude": 76.77666500000001, "address": "Parbhani, Maharashtra, India"}, {"latitude": 19.0759837, "longitude": 72.8776559, "address": "Mumbai, Maharashtra, India"}, {"latitude": 21.1458004, "longitude": 79.0881546, "address": "Nagpur, Maharashtra, India"}, {"latitude": 21.1458004, "longitude": 79.0881546, "address": "Nagpur, Maharashtra, India"}, {"latitude": 21.2786567, "longitude": 81.8661442, "address": "Chhattisgarh, India"}, {"latitude": 19.9974533, "longitude": 73.78980229999999, "address": "Nashik, Maharashtra, India"}, {"latitude": 19.0759837, "longitude": 72.8776559, "address": "Mumbai, Maharashtra, India"}, {"latitude": 19.0759837, "longitude": 72.8776559, "address": "Mumbai, Maharashtra, India"}, {"latitude": 21.1458004, "longitude": 79.0881546, "address": "Nagpur, Maharashtra, India"}, {"latitude": 21.2786567, "longitude": 81.8661442, "address": "Chhattisgarh, India"}, {"latitude": 21.2786567, "longitude": 81.8661442, "address": "Chhattisgarh, India"}, {"latitude": 20.593684, "longitude": 78.96288, "address": "India"}, {"latitude": 21.1458004, "longitude": 79.0881546, "address": "Nagpur, Maharashtra, India"}, {"latitude": 21.2786567, "longitude": 81.8661442, "address": "Chhattisgarh, India"}, {"latitude": 19.9974533, "longitude": 73.78980229999999, "address": "Nashik, Maharashtra, India"}, {"latitude": 21.2786567, "longitude": 81.8661442, "address": "Chhattisgarh, India"}, {"latitude": 21.1458004, "longitude": 79.0881546, "address": "Nagpur, Maharashtra, India"}, {"latitude": 21.1458004, "longitude": 79.0881546, "address": "Nagpur, Maharashtra, India"}, {"latitude": 19.9974533, "longitude": 73.78980229999999, "address": "Nashik, Maharashtra, India"}, {"latitude": 20.593684, "longitude": 78.96288, "address": "India"}, {"latitude": 28.635308, "longitude": 77.22496, "address": "New Delhi, Delhi, India"}, {"latitude": 21.2786567, "longitude": 81.8661442, "address": "Chhattisgarh, India"}, {"latitude": 21.1458004, "longitude": 79.0881546, "address": "Nagpur, Maharashtra, India"}, {"latitude": 19.0759837, "longitude": 72.8776559, "address": "Mumbai, Maharashtra, India"}, {"latitude": 20.7, "longitude": 77, "address": "Akola, Maharashtra, India"}, {"latitude": 19.9974533, "longitude": 73.78980229999999, "address": "Nashik, Maharashtra, India"}, {"latitude": 21.1458004, "longitude": 79.0881546, "address": "Nagpur, Maharashtra, India"}, {"latitude": 21.1458004, "longitude": 79.0881546, "address": "Nagpur, Maharashtra, India"}, {"latitude": 21.812876, "longitude": 80.18382930000001, "address": "Balaghat, Madhya Pradesh, India"}, {"latitude": 21.2513844, "longitude": 81.62964130000002, "address": "Raipur, Chhattisgarh, India"}, {"latitude": 21.2513844, "longitude": 81.62964130000002, "address": "Raipur, Chhattisgarh, India"}, {"latitude": 21.19, "longitude": 81.28, "address": "Durg, Chhattisgarh, India"}, {"latitude": 19.9974533, "longitude": 73.78980229999999, "address": "Nashik, Maharashtra, India"}, {"latitude": 21.2786567, "longitude": 81.8661442, "address": "Chhattisgarh, India"}, {"latitude": 21.2786567, "longitude": 81.8661442, "address": "Chhattisgarh, India"}, {"latitude": 21.2786567, "longitude": 81.8661442, "address": "Chhattisgarh, India"}, {"latitude": 21.2786567, "longitude": 81.8661442, "address": "Chhattisgarh, India"}, {"latitude": 21.2786567, "longitude": 81.8661442, "address": "Chhattisgarh, India"}, {"latitude": 21.2786567, "longitude": 81.8661442, "address": "Chhattisgarh, India"}, {"latitude": 21.2786567, "longitude": 81.8661442, "address": "Chhattisgarh, India"}, {"latitude": 21.2786567, "longitude": 81.8661442, "address": "Chhattisgarh, India"}, {"latitude": 21.2786567, "longitude": 81.8661442, "address": "Chhattisgarh, India"}, {"latitude": 19.9974533, "longitude": 73.78980229999999, "address": "Nashik, Maharashtra, India"}, {"latitude": 21.1458004, "longitude": 79.0881546, "address": "Nagpur, Maharashtra, India"}, {"latitude": 19.9974533, "longitude": 73.78980229999999, "address": "Nashik, Maharashtra, India"}, {"latitude": 21.2786567, "longitude": 81.8661442, "address": "Chhattisgarh, India"}, {"latitude": 19.9974533, "longitude": 73.78980229999999, "address": "Nashik, Maharashtra, India"}, {"latitude": 21.2513844, "longitude": 81.62964130000002, "address": "Raipur, Chhattisgarh, India"}, {"latitude": 21.2513844, "longitude": 81.62964130000002, "address": "Raipur, Chhattisgarh, India"}, {"latitude": 21.1458004, "longitude": 79.0881546, "address": "Nagpur, Maharashtra, India"}, {"latitude": 19.9974533, "longitude": 73.78980229999999, "address": "Nashik, Maharashtra, India"}, {"latitude": 21.1458004, "longitude": 79.0881546, "address": "Nagpur, Maharashtra, India"}, {"latitude": 21.1458004, "longitude": 79.0881546, "address": "Nagpur, Maharashtra, India"}, {"latitude": 19.9974533, "longitude": 73.78980229999999, "address": "Nashik, Maharashtra, India"}, {"latitude": 16.7375089, "longitude": 78.0081221, "address": "Mahbubnagar, Telangana, India"}, {"latitude": 21.1458004, "longitude": 79.0881546, "address": "Nagpur, Maharashtra, India"}, {"latitude": 19.9974533, "longitude": 73.78980229999999, "address": "Nashik, Maharashtra, India"}, {"latitude": 19.9974533, "longitude": 73.78980229999999, "address": "Nashik, Maharashtra, India"}, {"latitude": 21.17, "longitude": 79.64999999999999, "address": "Bhandara, Maharashtra, India"}, {"latitude": 21.1458004, "longitude": 79.0881546, "address": "Nagpur, Maharashtra, India"}, {"latitude": 22.8045665, "longitude": 86.2028754, "address": "Jamshedpur, Jharkhand, India"}, {"latitude": 21.2786567, "longitude": 81.8661442, "address": "Chhattisgarh, India"}, {"latitude": 21.2786567, "longitude": 81.8661442, "address": "Chhattisgarh, India"}, {"latitude": 21.2786567, "longitude": 81.8661442, "address": "Chhattisgarh, India"}, {"latitude": 21.2786567, "longitude": 81.8661442, "address": "Chhattisgarh, India"}, {"latitude": 21.2786567, "longitude": 81.8661442, "address": "Chhattisgarh, India"}, {"latitude": 21.2513844, "longitude": 81.62964130000002, "address": "Raipur, Chhattisgarh, India"}, {"latitude": 21.1458004, "longitude": 79.0881546, "address": "Nagpur, Maharashtra, India"}, {"latitude": 21.1458004, "longitude": 79.0881546, "address": "Nagpur, Maharashtra, India"}, {"latitude": 20.7, "longitude": 77, "address": "Akola, Maharashtra, India"}, {"latitude": 21.2786567, "longitude": 81.8661442, "address": "Chhattisgarh, India"}, {"latitude": 21.2786567, "longitude": 81.8661442, "address": "Chhattisgarh, India"}, {"latitude": 21.1458004, "longitude": 79.0881546, "address": "Nagpur, Maharashtra, India"}, {"latitude": 20.3887937, "longitude": 78.1204073, "address": "Yavatmal, Maharashtra, India"}, {"latitude": 21.19, "longitude": 81.28, "address": "Durg, Chhattisgarh, India"}, {"latitude": 21.1458004, "longitude": 79.0881546, "address": "Nagpur, Maharashtra, India"}, {"latitude": 21.19, "longitude": 81.28, "address": "Durg, Chhattisgarh, India"}, {"latitude": 21.19, "longitude": 81.28, "address": "Durg, Chhattisgarh, India"}, {"latitude": 19.9974533, "longitude": 73.78980229999999, "address": "Nashik, Maharashtra, India"}, {"latitude": 21.2513844, "longitude": 81.62964130000002, "address": "Raipur, Chhattisgarh, India"}, {"latitude": 19.2609958, "longitude": 76.77666500000001, "address": "Parbhani, Maharashtra, India"}, {"latitude": 18.5204303, "longitude": 73.8567437, "address": "Pune, Maharashtra, India"}, {"latitude": 21.1458004, "longitude": 79.0881546, "address": "Nagpur, Maharashtra, India"}, {"latitude": 21.17, "longitude": 79.64999999999999, "address": "Bhandara, Maharashtra, India"}, {"latitude": 19.9974533, "longitude": 73.78980229999999, "address": "Nashik, Maharashtra, India"}, {"latitude": 21.1458004, "longitude": 79.0881546, "address": "Nagpur, Maharashtra, India"}, {"latitude": 21.1458004, "longitude": 79.0881546, "address": "Nagpur, Maharashtra, India"}, {"latitude": 19.2609958, "longitude": 76.77666500000001, "address": "Parbhani, Maharashtra, India"}, {"latitude": 19.2609958, "longitude": 76.77666500000001, "address": "Parbhani, Maharashtra, India"}, {"latitude": 21.2513844, "longitude": 81.62964130000002, "address": "Raipur, Chhattisgarh, India"}, {"latitude": 21.2513844, "longitude": 81.62964130000002, "address": "Raipur, Chhattisgarh, India"}, {"latitude": 21.17, "longitude": 79.64999999999999, "address": "Bhandara, Maharashtra, India"}, {"latitude": 21.2513844, "longitude": 81.62964130000002, "address": "Raipur, Chhattisgarh, India"}, {"latitude": 19.9974533, "longitude": 73.78980229999999, "address": "Nashik, Maharashtra, India"}, {"latitude": 19.9974533, "longitude": 73.78980229999999, "address": "Nashik, Maharashtra, India"}, {"latitude": 21.1458004, "longitude": 79.0881546, "address": "Nagpur, Maharashtra, India"}, {"latitude": 21.1458004, "longitude": 79.0881546, "address": "Nagpur, Maharashtra, India"}, {"latitude": 21.1458004, "longitude": 79.0881546, "address": "Nagpur, Maharashtra, India"}, {"latitude": 19.9974533, "longitude": 73.78980229999999, "address": "Nashik, Maharashtra, India"}, {"latitude": 19.9974533, "longitude": 73.78980229999999, "address": "Nashik, Maharashtra, India"}, {"latitude": 21.1458004, "longitude": 79.0881546, "address": "Nagpur, Maharashtra, India"}, {"latitude": 21.2786567, "longitude": 81.8661442, "address": "Chhattisgarh, India"}, {"latitude": 21.2786567, "longitude": 81.8661442, "address": "Chhattisgarh, India"}, {"latitude": 22.6054858, "longitude": 77.75354399999999, "address": "Itarsi, Madhya Pradesh, India"}, {"latitude": 21.2513844, "longitude": 81.62964130000002, "address": "Raipur, Chhattisgarh, India"}, {"latitude": 20.7, "longitude": 77, "address": "Akola, Maharashtra, India"}, {"latitude": 22.057437, "longitude": 78.9381729, "address": "Chhindwara, Madhya Pradesh 480001, India"}, {"latitude": 19.2609958, "longitude": 76.77666500000001, "address": "Parbhani, Maharashtra, India"}, {"latitude": 20.593684, "longitude": 78.96288, "address": "India"}, {"latitude": 21.2513844, "longitude": 81.62964130000002, "address": "Raipur, Chhattisgarh, India"}, {"latitude": 21.1458004, "longitude": 79.0881546, "address": "Nagpur, Maharashtra, India"}, {"latitude": 21.1458004, "longitude": 79.0881546, "address": "Nagpur, Maharashtra, India"}, {"latitude": 21.1458004, "longitude": 79.0881546, "address": "Nagpur, Maharashtra, India"}, {"latitude": 19.0759837, "longitude": 72.8776559, "address": "Mumbai, Maharashtra, India"}, {"latitude": 19.9974533, "longitude": 73.78980229999999, "address": "Nashik, Maharashtra, India"}, {"latitude": 22.6054858, "longitude": 77.75354399999999, "address": "Itarsi, Madhya Pradesh, India"}, {"latitude": 19.2609958, "longitude": 76.77666500000001, "address": "Parbhani, Maharashtra, India"}, {"latitude": 19.0759837, "longitude": 72.8776559, "address": "Mumbai, Maharashtra, India"}, {"latitude": 21.1458004, "longitude": 79.0881546, "address": "Nagpur, Maharashtra, India"}, {"latitude": 21.1458004, "longitude": 79.0881546, "address": "Nagpur, Maharashtra, India"}, {"latitude": 21.2786567, "longitude": 81.8661442, "address": "Chhattisgarh, India"}, {"latitude": 19.9974533, "longitude": 73.78980229999999, "address": "Nashik, Maharashtra, India"}, {"latitude": 19.2609958, "longitude": 76.77666500000001, "address": "Parbhani, Maharashtra, India"}, {"latitude": 21.2513844, "longitude": 81.62964130000002, "address": "Raipur, Chhattisgarh, India"}, {"latitude": 21.2513844, "longitude": 81.62964130000002, "address": "Raipur, Chhattisgarh, India"}, {"latitude": 21.17, "longitude": 79.64999999999999, "address": "Bhandara, Maharashtra, India"}, {"latitude": 21.2513844, "longitude": 81.62964130000002, "address": "Raipur, Chhattisgarh, India"}, {"latitude": 19.9974533, "longitude": 73.78980229999999, "address": "Nashik, Maharashtra, India"}, {"latitude": 19.9974533, "longitude": 73.78980229999999, "address": "Nashik, Maharashtra, India"}, {"latitude": 21.1458004, "longitude": 79.0881546, "address": "Nagpur, Maharashtra, India"}, {"latitude": 21.1458004, "longitude": 79.0881546, "address": "Nagpur, Maharashtra, India"}, {"latitude": 21.1458004, "longitude": 79.0881546, "address": "Nagpur, Maharashtra, India"}, {"latitude": 19.9974533, "longitude": 73.78980229999999, "address": "Nashik, Maharashtra, India"}, {"latitude": 19.9974533, "longitude": 73.78980229999999, "address": "Nashik, Maharashtra, India"}, {"latitude": 21.1458004, "longitude": 79.0881546, "address": "Nagpur, Maharashtra, India"}, {"latitude": 21.2786567, "longitude": 81.8661442, "address": "Chhattisgarh, India"}, {"latitude": 21.2786567, "longitude": 81.8661442, "address": "Chhattisgarh, India"}, {"latitude": 22.6054858, "longitude": 77.75354399999999, "address": "Itarsi, Madhya Pradesh, India"}, {"latitude": 21.2513844, "longitude": 81.62964130000002, "address": "Raipur, Chhattisgarh, India"}, {"latitude": 20.7, "longitude": 77, "address": "Akola, Maharashtra, India"}, {"latitude": 22.057437, "longitude": 78.9381729, "address": "Chhindwara, Madhya Pradesh 480001, India"}, {"latitude": 19.2609958, "longitude": 76.77666500000001, "address": "Parbhani, Maharashtra, India"}, {"latitude": 20.593684, "longitude": 78.96288, "address": "India"}, {"latitude": 21.2513844, "longitude": 81.62964130000002, "address": "Raipur, Chhattisgarh, India"}, {"latitude": 21.1458004, "longitude": 79.0881546, "address": "Nagpur, Maharashtra, India"}, {"latitude": 21.1458004, "longitude": 79.0881546, "address": "Nagpur, Maharashtra, India"}, {"latitude": 21.1458004, "longitude": 79.0881546, "address": "Nagpur, Maharashtra, India"}, {"latitude": 19.0759837, "longitude": 72.8776559, "address": "Mumbai, Maharashtra, India"}, {"latitude": 19.9974533, "longitude": 73.78980229999999, "address": "Nashik, Maharashtra, India"}, {"latitude": 22.6054858, "longitude": 77.75354399999999, "address": "Itarsi, Madhya Pradesh, India"}, {"latitude": 19.2609958, "longitude": 76.77666500000001, "address": "Parbhani, Maharashtra, India"}, {"latitude": 19.0759837, "longitude": 72.8776559, "address": "Mumbai, Maharashtra, India"}, {"latitude": 21.1458004, "longitude": 79.0881546, "address": "Nagpur, Maharashtra, India"}, {"latitude": 21.1458004, "longitude": 79.0881546, "address": "Nagpur, Maharashtra, India"}, {"latitude": 21.2786567, "longitude": 81.8661442, "address": "Chhattisgarh, India"}, {"latitude": 19.9974533, "longitude": 73.78980229999999, "address": "Nashik, Maharashtra, India"}, {"latitude": 19.0759837, "longitude": 72.8776559, "address": "Mumbai, Maharashtra, India"}, {"latitude": 19.0759837, "longitude": 72.8776559, "address": "Mumbai, Maharashtra, India"}, {"latitude": 21.1458004, "longitude": 79.0881546, "address": "Nagpur, Maharashtra, India"}, {"latitude": 21.2786567, "longitude": 81.8661442, "address": "Chhattisgarh, India"}, {"latitude": 21.2786567, "longitude": 81.8661442, "address": "Chhattisgarh, India"}, {"latitude": 20.593684, "longitude": 78.96288, "address": "India"}, {"latitude": 21.1458004, "longitude": 79.0881546, "address": "Nagpur, Maharashtra, India"}, {"latitude": 21.2786567, "longitude": 81.8661442, "address": "Chhattisgarh, India"}, {"latitude": 19.9974533, "longitude": 73.78980229999999, "address": "Nashik, Maharashtra, India"}, {"latitude": 21.2786567, "longitude": 81.8661442, "address": "Chhattisgarh, India"}, {"latitude": 21.1458004, "longitude": 79.0881546, "address": "Nagpur, Maharashtra, India"}, {"latitude": 21.1458004, "longitude": 79.0881546, "address": "Nagpur, Maharashtra, India"}, {"latitude": 19.9974533, "longitude": 73.78980229999999, "address": "Nashik, Maharashtra, India"}, {"latitude": 20.593684, "longitude": 78.96288, "address": "India"}, {"latitude": 28.635308, "longitude": 77.22496, "address": "New Delhi, Delhi, India"}, {"latitude": 21.2786567, "longitude": 81.8661442, "address": "Chhattisgarh, India"}, {"latitude": 21.1458004, "longitude": 79.0881546, "address": "Nagpur, Maharashtra, India"}, {"latitude": 19.0759837, "longitude": 72.8776559, "address": "Mumbai, Maharashtra, India"}, {"latitude": 20.7, "longitude": 77, "address": "Akola, Maharashtra, India"}, {"latitude": 19.9974533, "longitude": 73.78980229999999, "address": "Nashik, Maharashtra, India"}, {"latitude": 21.1458004, "longitude": 79.0881546, "address": "Nagpur, Maharashtra, India"}, {"latitude": 21.1458004, "longitude": 79.0881546, "address": "Nagpur, Maharashtra, India"}, {"latitude": 21.812876, "longitude": 80.18382930000001, "address": "Balaghat, Madhya Pradesh, India"}, {"latitude": 21.2513844, "longitude": 81.62964130000002, "address": "Raipur, Chhattisgarh, India"}, {"latitude": 21.2513844, "longitude": 81.62964130000002, "address": "Raipur, Chhattisgarh, India"}, {"latitude": 21.19, "longitude": 81.28, "address": "Durg, Chhattisgarh, India"}, {"latitude": 19.9974533, "longitude": 73.78980229999999, "address": "Nashik, Maharashtra, India"}, {"latitude": 21.2786567, "longitude": 81.8661442, "address": "Chhattisgarh, India"}, {"latitude": 21.2786567, "longitude": 81.8661442, "address": "Chhattisgarh, India"}, {"latitude": 21.2786567, "longitude": 81.8661442, "address": "Chhattisgarh, India"}, {"latitude": 21.2786567, "longitude": 81.8661442, "address": "Chhattisgarh, India"}, {"latitude": 21.2786567, "longitude": 81.8661442, "address": "Chhattisgarh, India"}, {"latitude": 21.2786567, "longitude": 81.8661442, "address": "Chhattisgarh, India"}, {"latitude": 21.2786567, "longitude": 81.8661442, "address": "Chhattisgarh, India"}, {"latitude": 21.2786567, "longitude": 81.8661442, "address": "Chhattisgarh, India"}, {"latitude": 21.2786567, "longitude": 81.8661442, "address": "Chhattisgarh, India"}, {"latitude": 19.9974533, "longitude": 73.78980229999999, "address": "Nashik, Maharashtra, India"}, {"latitude": 21.1458004, "longitude": 79.0881546, "address": "Nagpur, Maharashtra, India"}, {"latitude": 19.9974533, "longitude": 73.78980229999999, "address": "Nashik, Maharashtra, India"}, {"latitude": 21.1458004, "longitude": 79.0881546, "address": "Nagpur, Maharashtra, India"}, {"latitude": 21.1458004, "longitude": 79.0881546, "address": "Nagpur, Maharashtra, India"}, {"latitude": 26.2647757, "longitude": 82.07270609999999, "address": "Sultanpur, Uttar Pradesh, India"}, {"latitude": 19.9974533, "longitude": 73.78980229999999, "address": "Nashik, Maharashtra, India"}, {"latitude": 21.1458004, "longitude": 79.0881546, "address": "Nagpur, Maharashtra, India"}, {"latitude": 21.1458004, "longitude": 79.0881546, "address": "Nagpur, Maharashtra, India"}, {"latitude": 19.9974533, "longitude": 73.78980229999999, "address": "Nashik, Maharashtra, India"}, {"latitude": 16.7375089, "longitude": 78.0081221, "address": "Mahbubnagar, Telangana, India"}, {"latitude": 21.1458004, "longitude": 79.0881546, "address": "Nagpur, Maharashtra, India"}, {"latitude": 19.9974533, "longitude": 73.78980229999999, "address": "Nashik, Maharashtra, India"}, {"latitude": 19.9974533, "longitude": 73.78980229999999, "address": "Nashik, Maharashtra, India"}, {"latitude": 21.17, "longitude": 79.64999999999999, "address": "Bhandara, Maharashtra, India"}, {"latitude": 21.1458004, "longitude": 79.0881546, "address": "Nagpur, Maharashtra, India"}, {"latitude": 22.8045665, "longitude": 86.2028754, "address": "Jamshedpur, Jharkhand, India"}, {"latitude": 21.2786567, "longitude": 81.8661442, "address": "Chhattisgarh, India"}, {"latitude": 21.2786567, "longitude": 81.8661442, "address": "Chhattisgarh, India"}, {"latitude": 21.2786567, "longitude": 81.8661442, "address": "Chhattisgarh, India"}, {"latitude": 21.2786567, "longitude": 81.8661442, "address": "Chhattisgarh, India"}, {"latitude": 21.2786567, "longitude": 81.8661442, "address": "Chhattisgarh, India"}, {"latitude": 21.2513844, "longitude": 81.62964130000002, "address": "Raipur, Chhattisgarh, India"}, {"latitude": 21.1458004, "longitude": 79.0881546, "address": "Nagpur, Maharashtra, India"}, {"latitude": 21.1458004, "longitude": 79.0881546, "address": "Nagpur, Maharashtra, India"}, {"latitude": 20.7, "longitude": 77, "address": "Akola, Maharashtra, India"}, {"latitude": 21.2786567, "longitude": 81.8661442, "address": "Chhattisgarh, India"}, {"latitude": 21.2786567, "longitude": 81.8661442, "address": "Chhattisgarh, India"}, {"latitude": 21.1458004, "longitude": 79.0881546, "address": "Nagpur, Maharashtra, India"}, {"latitude": 20.3887937, "longitude": 78.1204073, "address": "Yavatmal, Maharashtra, India"}, {"latitude": 21.19, "longitude": 81.28, "address": "Durg, Chhattisgarh, India"}, {"latitude": 21.1458004, "longitude": 79.0881546, "address": "Nagpur, Maharashtra, India"}, {"latitude": 21.19, "longitude": 81.28, "address": "Durg, Chhattisgarh, India"}, {"latitude": 21.19, "longitude": 81.28, "address": "Durg, Chhattisgarh, India"}, {"latitude": 19.9974533, "longitude": 73.78980229999999, "address": "Nashik, Maharashtra, India"}, {"latitude": 21.2513844, "longitude": 81.62964130000002, "address": "Raipur, Chhattisgarh, India"}, {"latitude": 19.2609958, "longitude": 76.77666500000001, "address": "Parbhani, Maharashtra, India"}, {"latitude": 18.5204303, "longitude": 73.8567437, "address": "Pune, Maharashtra, India"}, {"latitude": 21.1458004, "longitude": 79.0881546, "address": "Nagpur, Maharashtra, India"}, {"latitude": 21.17, "longitude": 79.64999999999999, "address": "Bhandara, Maharashtra, India"}, {"latitude": 19.9974533, "longitude": 73.78980229999999, "address": "Nashik, Maharashtra, India"}, {"latitude": 21.1458004, "longitude": 79.0881546, "address": "Nagpur, Maharashtra, India"}, {"latitude": 21.1458004, "longitude": 79.0881546, "address": "Nagpur, Maharashtra, India"}, {"latitude": 19.2609958, "longitude": 76.77666500000001, "address": "Parbhani, Maharashtra, India"}, {"latitude": 19.2609958, "longitude": 76.77666500000001, "address": "Parbhani, Maharashtra, India"}, {"latitude": 21.2513844, "longitude": 81.62964130000002, "address": "Raipur, Chhattisgarh, India"}, {"latitude": 21.2513844, "longitude": 81.62964130000002, "address": "Raipur, Chhattisgarh, India"}, {"latitude": 21.17, "longitude": 79.64999999999999, "address": "Bhandara, Maharashtra, India"}, {"latitude": 21.2513844, "longitude": 81.62964130000002, "address": "Raipur, Chhattisgarh, India"}, {"latitude": 19.9974533, "longitude": 73.78980229999999, "address": "Nashik, Maharashtra, India"}, {"latitude": 19.9974533, "longitude": 73.78980229999999, "address": "Nashik, Maharashtra, India"}, {"latitude": 21.1458004, "longitude": 79.0881546, "address": "Nagpur, Maharashtra, India"}, {"latitude": 21.1458004, "longitude": 79.0881546, "address": "Nagpur, Maharashtra, India"}, {"latitude": 21.1458004, "longitude": 79.0881546, "address": "Nagpur, Maharashtra, India"}, {"latitude": 19.9974533, "longitude": 73.78980229999999, "address": "Nashik, Maharashtra, India"}, {"latitude": 19.9974533, "longitude": 73.78980229999999, "address": "Nashik, Maharashtra, India"}, {"latitude": 21.1458004, "longitude": 79.0881546, "address": "Nagpur, Maharashtra, India"}, {"latitude": 21.2786567, "longitude": 81.8661442, "address": "Chhattisgarh, India"}, {"latitude": 21.2786567, "longitude": 81.8661442, "address": "Chhattisgarh, India"}, {"latitude": 22.6054858, "longitude": 77.75354399999999, "address": "Itarsi, Madhya Pradesh, India"}, {"latitude": 21.2513844, "longitude": 81.62964130000002, "address": "Raipur, Chhattisgarh, India"}, {"latitude": 20.7, "longitude": 77, "address": "Akola, Maharashtra, India"}, {"latitude": 22.057437, "longitude": 78.9381729, "address": "Chhindwara, Madhya Pradesh 480001, India"}, {"latitude": 19.2609958, "longitude": 76.77666500000001, "address": "Parbhani, Maharashtra, India"}, {"latitude": 20.593684, "longitude": 78.96288, "address": "India"}, {"latitude": 21.2513844, "longitude": 81.62964130000002, "address": "Raipur, Chhattisgarh, India"}, {"latitude": 21.1458004, "longitude": 79.0881546, "address": "Nagpur, Maharashtra, India"}, {"latitude": 21.1458004, "longitude": 79.0881546, "address": "Nagpur, Maharashtra, India"}, {"latitude": 21.1458004, "longitude": 79.0881546, "address": "Nagpur, Maharashtra, India"}, {"latitude": 19.0759837, "longitude": 72.8776559, "address": "Mumbai, Maharashtra, India"}, {"latitude": 19.9974533, "longitude": 73.78980229999999, "address": "Nashik, Maharashtra, India"}, {"latitude": 22.6054858, "longitude": 77.75354399999999, "address": "Itarsi, Madhya Pradesh, India"}, {"latitude": 19.2609958, "longitude": 76.77666500000001, "address": "Parbhani, Maharashtra, India"}, {"latitude": 19.0759837, "longitude": 72.8776559, "address": "Mumbai, Maharashtra, India"}, {"latitude": 21.1458004, "longitude": 79.0881546, "address": "Nagpur, Maharashtra, India"}, {"latitude": 21.1458004, "longitude": 79.0881546, "address": "Nagpur, Maharashtra, India"}, {"latitude": 21.2786567, "longitude": 81.8661442, "address": "Chhattisgarh, India"}, {"latitude": 19.9974533, "longitude": 73.78980229999999, "address": "Nashik, Maharashtra, India"}, {"latitude": 19.0759837, "longitude": 72.8776559, "address": "Mumbai, Maharashtra, India"}, {"latitude": 19.0759837, "longitude": 72.8776559, "address": "Mumbai, Maharashtra, India"}, {"latitude": 21.1458004, "longitude": 79.0881546, "address": "Nagpur, Maharashtra, India"}, {"latitude": 21.2786567, "longitude": 81.8661442, "address": "Chhattisgarh, India"}, {"latitude": 21.2786567, "longitude": 81.8661442, "address": "Chhattisgarh, India"}, {"latitude": 20.593684, "longitude": 78.96288, "address": "India"}, {"latitude": 20.593684, "longitude": 78.96288, "address": "India"}, {"latitude": 21.1458004, "longitude": 79.0881546, "address": "Nagpur, Maharashtra, India"}, {"latitude": 21.2786567, "longitude": 81.8661442, "address": "Chhattisgarh, India"}, {"latitude": 19.9974533, "longitude": 73.78980229999999, "address": "Nashik, Maharashtra, India"}, {"latitude": 21.2786567, "longitude": 81.8661442, "address": "Chhattisgarh, India"}, {"latitude": 21.1458004, "longitude": 79.0881546, "address": "Nagpur, Maharashtra, India"}, {"latitude": 21.1458004, "longitude": 79.0881546, "address": "Nagpur, Maharashtra, India"}, {"latitude": 19.9974533, "longitude": 73.78980229999999, "address": "Nashik, Maharashtra, India"}, {"latitude": 20.593684, "longitude": 78.96288, "address": "India"}, {"latitude": 28.635308, "longitude": 77.22496, "address": "New Delhi, Delhi, India"}, {"latitude": 21.2786567, "longitude": 81.8661442, "address": "Chhattisgarh, India"}, {"latitude": 21.1458004, "longitude": 79.0881546, "address": "Nagpur, Maharashtra, India"}, {"latitude": 19.0759837, "longitude": 72.8776559, "address": "Mumbai, Maharashtra, India"}, {"latitude": 20.7, "longitude": 77, "address": "Akola, Maharashtra, India"}, {"latitude": 19.9974533, "longitude": 73.78980229999999, "address": "Nashik, Maharashtra, India"}, {"latitude": 21.1458004, "longitude": 79.0881546, "address": "Nagpur, Maharashtra, India"}, {"latitude": 21.1458004, "longitude": 79.0881546, "address": "Nagpur, Maharashtra, India"}, {"latitude": 21.812876, "longitude": 80.18382930000001, "address": "Balaghat, Madhya Pradesh, India"}, {"latitude": 21.2513844, "longitude": 81.62964130000002, "address": "Raipur, Chhattisgarh, India"}, {"latitude": 21.2513844, "longitude": 81.62964130000002, "address": "Raipur, Chhattisgarh, India"}, {"latitude": 21.19, "longitude": 81.28, "address": "Durg, Chhattisgarh, India"}, {"latitude": 19.9974533, "longitude": 73.78980229999999, "address": "Nashik, Maharashtra, India"}, {"latitude": 21.2786567, "longitude": 81.8661442, "address": "Chhattisgarh, India"}, {"latitude": 21.2786567, "longitude": 81.8661442, "address": "Chhattisgarh, India"}, {"latitude": 21.2786567, "longitude": 81.8661442, "address": "Chhattisgarh, India"}, {"latitude": 21.2786567, "longitude": 81.8661442, "address": "Chhattisgarh, India"}, {"latitude": 21.2786567, "longitude": 81.8661442, "address": "Chhattisgarh, India"}, {"latitude": 21.2786567, "longitude": 81.8661442, "address": "Chhattisgarh, India"}, {"latitude": 21.2786567, "longitude": 81.8661442, "address": "Chhattisgarh, India"}, {"latitude": 21.2786567, "longitude": 81.8661442, "address": "Chhattisgarh, India"}, {"latitude": 21.2786567, "longitude": 81.8661442, "address": "Chhattisgarh, India"}, {"latitude": 19.9974533, "longitude": 73.78980229999999, "address": "Nashik, Maharashtra, India"}, {"latitude": 21.1458004, "longitude": 79.0881546, "address": "Nagpur, Maharashtra, India"}, {"latitude": 19.9974533, "longitude": 73.78980229999999, "address": "Nashik, Maharashtra, India"}, {"latitude": 21.1458004, "longitude": 79.0881546, "address": "Nagpur, Maharashtra, India"}, {"latitude": 21.1458004, "longitude": 79.0881546, "address": "Nagpur, Maharashtra, India"}, {"latitude": 26.2647757, "longitude": 82.07270609999999, "address": "Sultanpur, Uttar Pradesh, India"}, {"latitude": 21.1458004, "longitude": 79.0881546, "address": "Nagpur, Maharashtra, India"}, {"latitude": 21.1458004, "longitude": 79.0881546, "address": "Nagpur, Maharashtra, India"}, {"latitude": 21.1458004, "longitude": 79.0881546, "address": "Nagpur, Maharashtra, India"}, {"latitude": 21.1458004, "longitude": 79.0881546, "address": "Nagpur, Maharashtra, India"}, {"latitude": 21.2513844, "longitude": 81.62964130000002, "address": "Raipur, Chhattisgarh, India"}, {"latitude": 21.2513844, "longitude": 81.62964130000002, "address": "Raipur, Chhattisgarh, India"}, {"latitude": 19.9974533, "longitude": 73.78980229999999, "address": "Nashik, Maharashtra, India"}, {"latitude": 21.2513844, "longitude": 81.62964130000002, "address": "Raipur, Chhattisgarh, India"}, {"latitude": 22.6054858, "longitude": 77.75354399999999, "address": "Itarsi, Madhya Pradesh, India"}, {"latitude": 21.1458004, "longitude": 79.0881546, "address": "Nagpur, Maharashtra, India"}, {"latitude": 28.0723841, "longitude": 75.82288989999999, "address": "Khetri Nagar, Rajasthan 333504, India"}, {"latitude": 21.1458004, "longitude": 79.0881546, "address": "Nagpur, Maharashtra, India"}, {"latitude": 21.1458004, "longitude": 79.0881546, "address": "Nagpur, Maharashtra, India"}, {"latitude": 21.1468454, "longitude": 79.0611062, "address": "Amravati Road, Nagpur, Maharashtra, India"}, {"latitude": 21.1468454, "longitude": 79.0611062, "address": "Amravati Road, Nagpur, Maharashtra, India"}, {"latitude": 21.2786567, "longitude": 81.8661442, "address": "Chhattisgarh, India"}, {"latitude": 21.2786567, "longitude": 81.8661442, "address": "Chhattisgarh, India"}, {"latitude": 21.2786567, "longitude": 81.8661442, "address": "Chhattisgarh, India"}, {"latitude": 21.2786567, "longitude": 81.8661442, "address": "Chhattisgarh, India"}, {"latitude": 21.2786567, "longitude": 81.8661442, "address": "Chhattisgarh, India"}, {"latitude": 21.2786567, "longitude": 81.8661442, "address": "Chhattisgarh, India"}, {"latitude": 21.2786567, "longitude": 81.8661442, "address": "Chhattisgarh, India"}, {"latitude": 21.2786567, "longitude": 81.8661442, "address": "Chhattisgarh, India"}, {"latitude": 21.2786567, "longitude": 81.8661442, "address": "Chhattisgarh, India"}, {"latitude": 21.2786567, "longitude": 81.8661442, "address": "Chhattisgarh, India"}, {"latitude": 21.2786567, "longitude": 81.8661442, "address": "Chhattisgarh, India"}, {"latitude": 21.2513844, "longitude": 81.62964130000002, "address": "Raipur, Chhattisgarh, India"}, {"latitude": 21.2513844, "longitude": 81.62964130000002, "address": "Raipur, Chhattisgarh, India"}, {"latitude": 21.1458004, "longitude": 79.0881546, "address": "Nagpur, Maharashtra, India"},